Kommunenummer	Stadnamn	Prioritet	Stadtype nynorsk	Stadtype bokmål	Stadtype engelsk	Kommune	Fylke	Lat	Lon	Høgd	Nynorsk	Bokmål	Engelsk	
101	Asak kirke	55	Kyrkje	Kirke	Church	Halden	Østfold	59.14465	11.45458		http://www.yr.no/stad/Noreg/Østfold/Halden/Asak_kirke/varsel.xml	http://www.yr.no/sted/Norge/Østfold/Halden/Asak_kirke/varsel.xml	http://www.yr.no/place/Norway/Østfold/Halden/Asak_kirke/forecast.xml
101	Berg kirke	36	Kyrkje	Kirke	Church	Halden	Østfold	59.13783	11.32945		http://www.yr.no/stad/Noreg/Østfold/Halden/Berg_kirke/varsel.xml	http://www.yr.no/sted/Norge/Østfold/Halden/Berg_kirke/varsel.xml	http://www.yr.no/place/Norway/Østfold/Halden/Berg_kirke/forecast.xml
101	Brekke	56	Sluse	Sluse	Lock	Halden	Østfold	59.14785	11.55603		http://www.yr.no/stad/Noreg/Østfold/Halden/Brekke~35224/varsel.xml	http://www.yr.no/sted/Norge/Østfold/Halden/Brekke~35224/varsel.xml	http://www.yr.no/place/Norway/Østfold/Halden/Brekke~35224/forecast.xml
101	Brødløs	36	Byområde	Byområde	Part of a city	Halden	Østfold	59.13996	11.38078		http://www.yr.no/stad/Noreg/Østfold/Halden/Brødløs/varsel.xml	http://www.yr.no/sted/Norge/Østfold/Halden/Brødløs/varsel.xml	http://www.yr.no/place/Norway/Østfold/Halden/Brødløs/forecast.xml
101	Demma	41	Grend	Grend	Village	Halden	Østfold	59.16335	11.42916		http://www.yr.no/stad/Noreg/Østfold/Halden/Demma/varsel.xml	http://www.yr.no/sted/Norge/Østfold/Halden/Demma/varsel.xml	http://www.yr.no/place/Norway/Østfold/Halden/Demma/forecast.xml
101	Ertehytta	41	Turisthytte	Turisthytte	Hut	Halden	Østfold	59.11525	11.50333		http://www.yr.no/stad/Noreg/Østfold/Halden/Ertehytta/varsel.xml	http://www.yr.no/sted/Norge/Østfold/Halden/Ertehytta/varsel.xml	http://www.yr.no/place/Norway/Østfold/Halden/Ertehytta/forecast.xml
101	Grøvet	41	Grend	Grend	Village	Halden	Østfold	58.89898	11.51447		http://www.yr.no/stad/Noreg/Østfold/Halden/Grøvet/varsel.xml	http://www.yr.no/sted/Norge/Østfold/Halden/Grøvet/varsel.xml	http://www.yr.no/place/Norway/Østfold/Halden/Grøvet/forecast.xml
101	Halden	11	By	By	City - large town	Halden	Østfold	59.12460	11.38738		http://www.yr.no/stad/Noreg/Østfold/Halden/Halden/varsel.xml	http://www.yr.no/sted/Norge/Østfold/Halden/Halden/varsel.xml	http://www.yr.no/place/Norway/Østfold/Halden/Halden/forecast.xml
101	Halden postkontor	36	Poststad	Poststed	Post area	Halden	Østfold	59.12527	11.38896		http://www.yr.no/stad/Noreg/Østfold/Halden/Halden_postkontor/varsel.xml	http://www.yr.no/sted/Norge/Østfold/Halden/Halden_postkontor/varsel.xml	http://www.yr.no/place/Norway/Østfold/Halden/Halden_postkontor/forecast.xml
101	Haugtjernhytta	41	Turisthytte	Turisthytte	Hut	Halden	Østfold	59.09155	11.51977		http://www.yr.no/stad/Noreg/Østfold/Halden/Haugtjernhytta/varsel.xml	http://www.yr.no/sted/Norge/Østfold/Halden/Haugtjernhytta/varsel.xml	http://www.yr.no/place/Norway/Østfold/Halden/Haugtjernhytta/forecast.xml
101	Holtet	41	Grend	Grend	Village	Halden	Østfold	58.88044	11.53528		http://www.yr.no/stad/Noreg/Østfold/Halden/Holtet/varsel.xml	http://www.yr.no/sted/Norge/Østfold/Halden/Holtet/varsel.xml	http://www.yr.no/place/Norway/Østfold/Halden/Holtet/forecast.xml
101	Idd	45	Bygd	Bygd	Village area	Halden	Østfold	59.09491	11.42928		http://www.yr.no/stad/Noreg/Østfold/Halden/Idd/varsel.xml	http://www.yr.no/sted/Norge/Østfold/Halden/Idd/varsel.xml	http://www.yr.no/place/Norway/Østfold/Halden/Idd/forecast.xml
101	Idd kirke	55	Kyrkje	Kirke	Church	Halden	Østfold	59.08628	11.43470		http://www.yr.no/stad/Noreg/Østfold/Halden/Idd_kirke/varsel.xml	http://www.yr.no/sted/Norge/Østfold/Halden/Idd_kirke/varsel.xml	http://www.yr.no/place/Norway/Østfold/Halden/Idd_kirke/forecast.xml
101	Immanuels kirke	55	Kyrkje	Kirke	Church	Halden	Østfold	59.12113	11.39097		http://www.yr.no/stad/Noreg/Østfold/Halden/Immanuels_kirke/varsel.xml	http://www.yr.no/sted/Norge/Østfold/Halden/Immanuels_kirke/varsel.xml	http://www.yr.no/place/Norway/Østfold/Halden/Immanuels_kirke/forecast.xml
101	Isebakke	26	Tettstad	Tettsted	Small town	Halden	Østfold	59.11447	11.30851		http://www.yr.no/stad/Noreg/Østfold/Halden/Isebakke/varsel.xml	http://www.yr.no/sted/Norge/Østfold/Halden/Isebakke/varsel.xml	http://www.yr.no/place/Norway/Østfold/Halden/Isebakke/forecast.xml
101	Kitterød	41	Grend	Grend	Village	Halden	Østfold	58.88202	11.52219		http://www.yr.no/stad/Noreg/Østfold/Halden/Kitterød/varsel.xml	http://www.yr.no/sted/Norge/Østfold/Halden/Kitterød/varsel.xml	http://www.yr.no/place/Norway/Østfold/Halden/Kitterød/forecast.xml
101	Knardal	36	Byområde	Byområde	Part of a city	Halden	Østfold	59.11413	11.39368		http://www.yr.no/stad/Noreg/Østfold/Halden/Knardal/varsel.xml	http://www.yr.no/sted/Norge/Østfold/Halden/Knardal/varsel.xml	http://www.yr.no/place/Norway/Østfold/Halden/Knardal/forecast.xml
101	Kornsjø	26	Tettstad	Tettsted	Small town	Halden	Østfold	58.94145	11.65987		http://www.yr.no/stad/Noreg/Østfold/Halden/Kornsjø/varsel.xml	http://www.yr.no/sted/Norge/Østfold/Halden/Kornsjø/varsel.xml	http://www.yr.no/place/Norway/Østfold/Halden/Kornsjø/forecast.xml
101	Lerdalen	36	Byområde	Byområde	Part of a city	Halden	Østfold	59.14887	11.37884		http://www.yr.no/stad/Noreg/Østfold/Halden/Lerdalen/varsel.xml	http://www.yr.no/sted/Norge/Østfold/Halden/Lerdalen/varsel.xml	http://www.yr.no/place/Norway/Østfold/Halden/Lerdalen/forecast.xml
101	Prestebakke	36	Tettbebyggelse	Tettbebyggelse	Settlement	Halden	Østfold	58.99169	11.53682		http://www.yr.no/stad/Noreg/Østfold/Halden/Prestebakke~23368/varsel.xml	http://www.yr.no/sted/Norge/Østfold/Halden/Prestebakke~23368/varsel.xml	http://www.yr.no/place/Norway/Østfold/Halden/Prestebakke~23368/forecast.xml
101	Prestebakke kirke	55	Kyrkje	Kirke	Church	Halden	Østfold	58.99346	11.53263		http://www.yr.no/stad/Noreg/Østfold/Halden/Prestebakke_kirke/varsel.xml	http://www.yr.no/sted/Norge/Østfold/Halden/Prestebakke_kirke/varsel.xml	http://www.yr.no/place/Norway/Østfold/Halden/Prestebakke_kirke/forecast.xml
101	Rokke kirke	55	Kyrkje	Kirke	Church	Halden	Østfold	59.18900	11.34423		http://www.yr.no/stad/Noreg/Østfold/Halden/Rokke_kirke/varsel.xml	http://www.yr.no/sted/Norge/Østfold/Halden/Rokke_kirke/varsel.xml	http://www.yr.no/place/Norway/Østfold/Halden/Rokke_kirke/forecast.xml
101	Skogskroken	41	Grend	Grend	Village	Halden	Østfold	58.91525	11.58540		http://www.yr.no/stad/Noreg/Østfold/Halden/Skogskroken/varsel.xml	http://www.yr.no/sted/Norge/Østfold/Halden/Skogskroken/varsel.xml	http://www.yr.no/place/Norway/Østfold/Halden/Skogskroken/forecast.xml
101	Sponvika	26	Tettstad	Tettsted	Small town	Halden	Østfold	59.09266	11.22981		http://www.yr.no/stad/Noreg/Østfold/Halden/Sponvika/varsel.xml	http://www.yr.no/sted/Norge/Østfold/Halden/Sponvika/varsel.xml	http://www.yr.no/place/Norway/Østfold/Halden/Sponvika/forecast.xml
101	Søndre Enningdalen kirke	55	Kyrkje	Kirke	Church	Halden	Østfold	58.90829	11.52179		http://www.yr.no/stad/Noreg/Østfold/Halden/Søndre_Enningdalen_kirke/varsel.xml	http://www.yr.no/sted/Norge/Østfold/Halden/Søndre_Enningdalen_kirke/varsel.xml	http://www.yr.no/place/Norway/Østfold/Halden/Søndre_Enningdalen_kirke/forecast.xml
101	Tistedal	26	Tettstad	Tettsted	Small town	Halden	Østfold	59.12887	11.44744		http://www.yr.no/stad/Noreg/Østfold/Halden/Tistedal/varsel.xml	http://www.yr.no/sted/Norge/Østfold/Halden/Tistedal/varsel.xml	http://www.yr.no/place/Norway/Østfold/Halden/Tistedal/forecast.xml
101	Tistedal kirke	55	Kyrkje	Kirke	Church	Halden	Østfold	59.12947	11.44463		http://www.yr.no/stad/Noreg/Østfold/Halden/Tistedal_kirke/varsel.xml	http://www.yr.no/sted/Norge/Østfold/Halden/Tistedal_kirke/varsel.xml	http://www.yr.no/place/Norway/Østfold/Halden/Tistedal_kirke/forecast.xml
101	Årbakke	41	Grend	Grend	Village	Halden	Østfold	59.01621	11.44968		http://www.yr.no/stad/Noreg/Østfold/Halden/Årbakke/varsel.xml	http://www.yr.no/sted/Norge/Østfold/Halden/Årbakke/varsel.xml	http://www.yr.no/place/Norway/Østfold/Halden/Årbakke/forecast.xml
104	Bellevue	36	Byområde	Byområde	Part of a city	Moss	Østfold	59.43720	10.63520		http://www.yr.no/stad/Noreg/Østfold/Moss/Bellevue/varsel.xml	http://www.yr.no/sted/Norge/Østfold/Moss/Bellevue/varsel.xml	http://www.yr.no/place/Norway/Østfold/Moss/Bellevue/forecast.xml
104	Bevøya	56	Øy i sjø	Øy i sjø	Island in sea	Moss	Østfold	59.51273	10.64085		http://www.yr.no/stad/Noreg/Østfold/Moss/Bevøya/varsel.xml	http://www.yr.no/sted/Norge/Østfold/Moss/Bevøya/varsel.xml	http://www.yr.no/place/Norway/Østfold/Moss/Bevøya/forecast.xml
104	Dillingøya	56	Øy	Øy	Island	Moss	Østfold	59.43177	10.76051		http://www.yr.no/stad/Noreg/Østfold/Moss/Dillingøya/varsel.xml	http://www.yr.no/sted/Norge/Østfold/Moss/Dillingøya/varsel.xml	http://www.yr.no/place/Norway/Østfold/Moss/Dillingøya/forecast.xml
104	Fiske	36	Byområde	Byområde	Part of a city	Moss	Østfold	59.43143	10.64650		http://www.yr.no/stad/Noreg/Østfold/Moss/Fiske/varsel.xml	http://www.yr.no/sted/Norge/Østfold/Moss/Fiske/varsel.xml	http://www.yr.no/place/Norway/Østfold/Moss/Fiske/forecast.xml
104	Framnes	36	Byområde	Byområde	Part of a city	Moss	Østfold	59.42695	10.63636		http://www.yr.no/stad/Noreg/Østfold/Moss/Framnes/varsel.xml	http://www.yr.no/sted/Norge/Østfold/Moss/Framnes/varsel.xml	http://www.yr.no/place/Norway/Østfold/Moss/Framnes/forecast.xml
104	Gjerrebogen	56	Tettbebyggelse	Tettbebyggelse	Settlement	Moss	Østfold	59.44089	10.68559		http://www.yr.no/stad/Noreg/Østfold/Moss/Gjerrebogen/varsel.xml	http://www.yr.no/sted/Norge/Østfold/Moss/Gjerrebogen/varsel.xml	http://www.yr.no/place/Norway/Østfold/Moss/Gjerrebogen/forecast.xml
104	Grindvoll	36	Byområde	Byområde	Part of a city	Moss	Østfold	59.44950	10.69367		http://www.yr.no/stad/Noreg/Østfold/Moss/Grindvoll/varsel.xml	http://www.yr.no/sted/Norge/Østfold/Moss/Grindvoll/varsel.xml	http://www.yr.no/place/Norway/Østfold/Moss/Grindvoll/forecast.xml
104	Gullholmen	46	Fyrlykt	Fyrlykt	Lantern	Moss	Østfold	59.43513	10.57684		http://www.yr.no/stad/Noreg/Østfold/Moss/Gullholmen/varsel.xml	http://www.yr.no/sted/Norge/Østfold/Moss/Gullholmen/varsel.xml	http://www.yr.no/place/Norway/Østfold/Moss/Gullholmen/forecast.xml
104	Hopperen	36	Byområde	Byområde	Part of a city	Moss	Østfold	59.43324	10.63008		http://www.yr.no/stad/Noreg/Østfold/Moss/Hopperen/varsel.xml	http://www.yr.no/sted/Norge/Østfold/Moss/Hopperen/varsel.xml	http://www.yr.no/place/Norway/Østfold/Moss/Hopperen/forecast.xml
104	Jeløy kirke	55	Kyrkje	Kirke	Church	Moss	Østfold	59.43658	10.63717		http://www.yr.no/stad/Noreg/Østfold/Moss/Jeløy_kirke/varsel.xml	http://www.yr.no/sted/Norge/Østfold/Moss/Jeløy_kirke/varsel.xml	http://www.yr.no/place/Norway/Østfold/Moss/Jeløy_kirke/forecast.xml
104	Kambo	26	Tettstad	Tettsted	Small town	Moss	Østfold	59.48292	10.69578		http://www.yr.no/stad/Noreg/Østfold/Moss/Kambo/varsel.xml	http://www.yr.no/sted/Norge/Østfold/Moss/Kambo/varsel.xml	http://www.yr.no/place/Norway/Østfold/Moss/Kambo/forecast.xml
104	Klommesten	36	Byområde	Byområde	Part of a city	Moss	Østfold	59.43037	10.67341		http://www.yr.no/stad/Noreg/Østfold/Moss/Klommesten/varsel.xml	http://www.yr.no/sted/Norge/Østfold/Moss/Klommesten/varsel.xml	http://www.yr.no/place/Norway/Østfold/Moss/Klommesten/forecast.xml
104	Krapfoss	36	Byområde	Byområde	Part of a city	Moss	Østfold	59.43287	10.68640		http://www.yr.no/stad/Noreg/Østfold/Moss/Krapfoss/varsel.xml	http://www.yr.no/sted/Norge/Østfold/Moss/Krapfoss/varsel.xml	http://www.yr.no/place/Norway/Østfold/Moss/Krapfoss/forecast.xml
104	Krossern	36	Byområde	Byområde	Part of a city	Moss	Østfold	59.44440	10.64636		http://www.yr.no/stad/Noreg/Østfold/Moss/Krossern/varsel.xml	http://www.yr.no/sted/Norge/Østfold/Moss/Krossern/varsel.xml	http://www.yr.no/place/Norway/Østfold/Moss/Krossern/forecast.xml
104	Malakoff	36	Byområde	Byområde	Part of a city	Moss	Østfold	59.42848	10.66440		http://www.yr.no/stad/Noreg/Østfold/Moss/Malakoff/varsel.xml	http://www.yr.no/sted/Norge/Østfold/Moss/Malakoff/varsel.xml	http://www.yr.no/place/Norway/Østfold/Moss/Malakoff/forecast.xml
104	Melløs	36	Byområde	Byområde	Part of a city	Moss	Østfold	59.42100	10.66656		http://www.yr.no/stad/Noreg/Østfold/Moss/Melløs/varsel.xml	http://www.yr.no/sted/Norge/Østfold/Moss/Melløs/varsel.xml	http://www.yr.no/place/Norway/Østfold/Moss/Melløs/forecast.xml
104	Moss	11	By	By	City - large town	Moss	Østfold	59.43402	10.65769	14	http://www.yr.no/stad/Noreg/Østfold/Moss/Moss/varsel.xml	http://www.yr.no/sted/Norge/Østfold/Moss/Moss/varsel.xml	http://www.yr.no/place/Norway/Østfold/Moss/Moss/forecast.xml
104	Moss kirke	55	Kyrkje	Kirke	Church	Moss	Østfold	59.43517	10.66236		http://www.yr.no/stad/Noreg/Østfold/Moss/Moss_kirke/varsel.xml	http://www.yr.no/sted/Norge/Østfold/Moss/Moss_kirke/varsel.xml	http://www.yr.no/place/Norway/Østfold/Moss/Moss_kirke/forecast.xml
104	Refsnes	36	Byområde	Byområde	Part of a city	Moss	Østfold	59.44707	10.61361		http://www.yr.no/stad/Noreg/Østfold/Moss/Refsnes/varsel.xml	http://www.yr.no/sted/Norge/Østfold/Moss/Refsnes/varsel.xml	http://www.yr.no/place/Norway/Østfold/Moss/Refsnes/forecast.xml
104	Skarmyra	56	Tettbebyggelse	Tettbebyggelse	Settlement	Moss	Østfold	59.43065	10.66734		http://www.yr.no/stad/Noreg/Østfold/Moss/Skarmyra/varsel.xml	http://www.yr.no/sted/Norge/Østfold/Moss/Skarmyra/varsel.xml	http://www.yr.no/place/Norway/Østfold/Moss/Skarmyra/forecast.xml
104	Skihytta	41	Turisthytte	Turisthytte	Hut	Moss	Østfold	59.46320	10.72604		http://www.yr.no/stad/Noreg/Østfold/Moss/Skihytta/varsel.xml	http://www.yr.no/sted/Norge/Østfold/Moss/Skihytta/varsel.xml	http://www.yr.no/place/Norway/Østfold/Moss/Skihytta/forecast.xml
104	Øre	36	Byområde	Byområde	Part of a city	Moss	Østfold	59.42409	10.68035		http://www.yr.no/stad/Noreg/Østfold/Moss/Øre/varsel.xml	http://www.yr.no/sted/Norge/Østfold/Moss/Øre/varsel.xml	http://www.yr.no/place/Norway/Østfold/Moss/Øre/forecast.xml
104	Ørehavna	36	Byområde	Byområde	Part of a city	Moss	Østfold	59.42950	10.68233		http://www.yr.no/stad/Noreg/Østfold/Moss/Ørehavna/varsel.xml	http://www.yr.no/sted/Norge/Østfold/Moss/Ørehavna/varsel.xml	http://www.yr.no/place/Norway/Østfold/Moss/Ørehavna/forecast.xml
105	Alvim	56	Tettbebyggelse	Tettbebyggelse	Settlement	Sarpsborg	Østfold	59.27656	11.08369		http://www.yr.no/stad/Noreg/Østfold/Sarpsborg/Alvim~2229863/varsel.xml	http://www.yr.no/sted/Norge/Østfold/Sarpsborg/Alvim~2229863/varsel.xml	http://www.yr.no/place/Norway/Østfold/Sarpsborg/Alvim~2229863/forecast.xml
105	Alvimhaugen	56	Tettbebyggelse	Tettbebyggelse	Settlement	Sarpsborg	Østfold	59.27357	11.08748		http://www.yr.no/stad/Noreg/Østfold/Sarpsborg/Alvimhaugen/varsel.xml	http://www.yr.no/sted/Norge/Østfold/Sarpsborg/Alvimhaugen/varsel.xml	http://www.yr.no/place/Norway/Østfold/Sarpsborg/Alvimhaugen/forecast.xml
105	Borgen	56	Tettbebyggelse	Tettbebyggelse	Settlement	Sarpsborg	Østfold	59.26618	11.15767		http://www.yr.no/stad/Noreg/Østfold/Sarpsborg/Borgen/varsel.xml	http://www.yr.no/sted/Norge/Østfold/Sarpsborg/Borgen/varsel.xml	http://www.yr.no/place/Norway/Østfold/Sarpsborg/Borgen/forecast.xml
105	Borgenhaugen	56	Tettbebyggelse	Tettbebyggelse	Settlement	Sarpsborg	Østfold	59.26445	11.14982		http://www.yr.no/stad/Noreg/Østfold/Sarpsborg/Borgenhaugen~2230027/varsel.xml	http://www.yr.no/sted/Norge/Østfold/Sarpsborg/Borgenhaugen~2230027/varsel.xml	http://www.yr.no/place/Norway/Østfold/Sarpsborg/Borgenhaugen~2230027/forecast.xml
105	Borgenhaugen	45	Bygd	Bygd	Village area	Sarpsborg	Østfold	59.26654	11.17823		http://www.yr.no/stad/Noreg/Østfold/Sarpsborg/Borgenhaugen/varsel.xml	http://www.yr.no/sted/Norge/Østfold/Sarpsborg/Borgenhaugen/varsel.xml	http://www.yr.no/place/Norway/Østfold/Sarpsborg/Borgenhaugen/forecast.xml
105	Enenda	56	Tettbebyggelse	Tettbebyggelse	Settlement	Sarpsborg	Østfold	59.28712	11.10231		http://www.yr.no/stad/Noreg/Østfold/Sarpsborg/Enenda/varsel.xml	http://www.yr.no/sted/Norge/Østfold/Sarpsborg/Enenda/varsel.xml	http://www.yr.no/place/Norway/Østfold/Sarpsborg/Enenda/forecast.xml
105	Fritznerbakken	56	Tettbebyggelse	Tettbebyggelse	Settlement	Sarpsborg	Østfold	59.28799	11.11457		http://www.yr.no/stad/Noreg/Østfold/Sarpsborg/Fritznerbakken/varsel.xml	http://www.yr.no/sted/Norge/Østfold/Sarpsborg/Fritznerbakken/varsel.xml	http://www.yr.no/place/Norway/Østfold/Sarpsborg/Fritznerbakken/forecast.xml
105	Gleng	56	Tettbebyggelse	Tettbebyggelse	Settlement	Sarpsborg	Østfold	59.28633	11.11599		http://www.yr.no/stad/Noreg/Østfold/Sarpsborg/Gleng/varsel.xml	http://www.yr.no/sted/Norge/Østfold/Sarpsborg/Gleng/varsel.xml	http://www.yr.no/place/Norway/Østfold/Sarpsborg/Gleng/forecast.xml
105	Greåker	26	Tettstad	Tettsted	Small town	Sarpsborg	Østfold	59.26592	11.03499		http://www.yr.no/stad/Noreg/Østfold/Sarpsborg/Greåker/varsel.xml	http://www.yr.no/sted/Norge/Østfold/Sarpsborg/Greåker/varsel.xml	http://www.yr.no/place/Norway/Østfold/Sarpsborg/Greåker/forecast.xml
105	Greåker kirke	55	Kyrkje	Kirke	Church	Sarpsborg	Østfold	59.27246	11.04334		http://www.yr.no/stad/Noreg/Østfold/Sarpsborg/Greåker_kirke/varsel.xml	http://www.yr.no/sted/Norge/Østfold/Sarpsborg/Greåker_kirke/varsel.xml	http://www.yr.no/place/Norway/Østfold/Sarpsborg/Greåker_kirke/forecast.xml
105	Grålum	56	Tettbebyggelse	Tettbebyggelse	Settlement	Sarpsborg	Østfold	59.29050	11.06808		http://www.yr.no/stad/Noreg/Østfold/Sarpsborg/Grålum/varsel.xml	http://www.yr.no/sted/Norge/Østfold/Sarpsborg/Grålum/varsel.xml	http://www.yr.no/place/Norway/Østfold/Sarpsborg/Grålum/forecast.xml
105	Hafslund	56	Tettbebyggelse	Tettbebyggelse	Settlement	Sarpsborg	Østfold	59.27208	11.15595		http://www.yr.no/stad/Noreg/Østfold/Sarpsborg/Hafslund~48540/varsel.xml	http://www.yr.no/sted/Norge/Østfold/Sarpsborg/Hafslund~48540/varsel.xml	http://www.yr.no/place/Norway/Østfold/Sarpsborg/Hafslund~48540/forecast.xml
105	Hafslund kirke	55	Kyrkje	Kirke	Church	Sarpsborg	Østfold	59.27266	11.13836		http://www.yr.no/stad/Noreg/Østfold/Sarpsborg/Hafslund_kirke/varsel.xml	http://www.yr.no/sted/Norge/Østfold/Sarpsborg/Hafslund_kirke/varsel.xml	http://www.yr.no/place/Norway/Østfold/Sarpsborg/Hafslund_kirke/forecast.xml
105	Hanestad	55	Kyrkje	Kirke	Church	Sarpsborg	Østfold	59.27498	11.04651		http://www.yr.no/stad/Noreg/Østfold/Sarpsborg/Hanestad/varsel.xml	http://www.yr.no/sted/Norge/Østfold/Sarpsborg/Hanestad/varsel.xml	http://www.yr.no/place/Norway/Østfold/Sarpsborg/Hanestad/forecast.xml
105	Hannestad	36	Byområde	Byområde	Part of a city	Sarpsborg	Østfold	59.27200	11.05594		http://www.yr.no/stad/Noreg/Østfold/Sarpsborg/Hannestad/varsel.xml	http://www.yr.no/sted/Norge/Østfold/Sarpsborg/Hannestad/varsel.xml	http://www.yr.no/place/Norway/Østfold/Sarpsborg/Hannestad/forecast.xml
105	Harehjellhytta	41	Turisthytte	Turisthytte	Hut	Sarpsborg	Østfold	59.36647	11.05999		http://www.yr.no/stad/Noreg/Østfold/Sarpsborg/Harehjellhytta/varsel.xml	http://www.yr.no/sted/Norge/Østfold/Sarpsborg/Harehjellhytta/varsel.xml	http://www.yr.no/place/Norway/Østfold/Sarpsborg/Harehjellhytta/forecast.xml
105	Hasle	56	Tettbebyggelse	Tettbebyggelse	Settlement	Sarpsborg	Østfold	59.31095	11.15884		http://www.yr.no/stad/Noreg/Østfold/Sarpsborg/Hasle/varsel.xml	http://www.yr.no/sted/Norge/Østfold/Sarpsborg/Hasle/varsel.xml	http://www.yr.no/place/Norway/Østfold/Sarpsborg/Hasle/forecast.xml
105	Holleby kirke	55	Kyrkje	Kirke	Church	Sarpsborg	Østfold	59.34349	11.11313		http://www.yr.no/stad/Noreg/Østfold/Sarpsborg/Holleby_kirke/varsel.xml	http://www.yr.no/sted/Norge/Østfold/Sarpsborg/Holleby_kirke/varsel.xml	http://www.yr.no/place/Norway/Østfold/Sarpsborg/Holleby_kirke/forecast.xml
105	Høysand	56	Tettbebyggelse	Tettbebyggelse	Settlement	Sarpsborg	Østfold	59.19280	11.18795		http://www.yr.no/stad/Noreg/Østfold/Sarpsborg/Høysand/varsel.xml	http://www.yr.no/sted/Norge/Østfold/Sarpsborg/Høysand/varsel.xml	http://www.yr.no/place/Norway/Østfold/Sarpsborg/Høysand/forecast.xml
105	Ingedal kirke	55	Kyrkje	Kirke	Church	Sarpsborg	Østfold	59.17860	11.21523		http://www.yr.no/stad/Noreg/Østfold/Sarpsborg/Ingedal_kirke/varsel.xml	http://www.yr.no/sted/Norge/Østfold/Sarpsborg/Ingedal_kirke/varsel.xml	http://www.yr.no/place/Norway/Østfold/Sarpsborg/Ingedal_kirke/forecast.xml
105	Ise	56	Tettbebyggelse	Tettbebyggelse	Settlement	Sarpsborg	Østfold	59.30000	11.22028		http://www.yr.no/stad/Noreg/Østfold/Sarpsborg/Ise~507783/varsel.xml	http://www.yr.no/sted/Norge/Østfold/Sarpsborg/Ise~507783/varsel.xml	http://www.yr.no/place/Norway/Østfold/Sarpsborg/Ise~507783/forecast.xml
105	Klokkerød	36	Byområde	Byområde	Part of a city	Sarpsborg	Østfold	59.29258	11.08687		http://www.yr.no/stad/Noreg/Østfold/Sarpsborg/Klokkerød/varsel.xml	http://www.yr.no/sted/Norge/Østfold/Sarpsborg/Klokkerød/varsel.xml	http://www.yr.no/place/Norway/Østfold/Sarpsborg/Klokkerød/forecast.xml
105	Kvastebyen	56	Tettbebyggelse	Tettbebyggelse	Settlement	Sarpsborg	Østfold	59.19568	11.17253		http://www.yr.no/stad/Noreg/Østfold/Sarpsborg/Kvastebyen/varsel.xml	http://www.yr.no/sted/Norge/Østfold/Sarpsborg/Kvastebyen/varsel.xml	http://www.yr.no/place/Norway/Østfold/Sarpsborg/Kvastebyen/forecast.xml
105	Navestad	56	Tettbebyggelse	Tettbebyggelse	Settlement	Sarpsborg	Østfold	59.25965	11.13195		http://www.yr.no/stad/Noreg/Østfold/Sarpsborg/Navestad/varsel.xml	http://www.yr.no/sted/Norge/Østfold/Sarpsborg/Navestad/varsel.xml	http://www.yr.no/place/Norway/Østfold/Sarpsborg/Navestad/forecast.xml
105	Navestad	56	Tettbebyggelse	Tettbebyggelse	Settlement	Sarpsborg	Østfold	59.25965	11.13195		http://www.yr.no/stad/Noreg/Østfold/Sarpsborg/Navestad/varsel.xml	http://www.yr.no/sted/Norge/Østfold/Sarpsborg/Navestad/varsel.xml	http://www.yr.no/place/Norway/Østfold/Sarpsborg/Navestad/forecast.xml
105	Nordberg	56	Tettbebyggelse	Tettbebyggelse	Settlement	Sarpsborg	Østfold	59.26590	11.13438		http://www.yr.no/stad/Noreg/Østfold/Sarpsborg/Nordberg/varsel.xml	http://www.yr.no/sted/Norge/Østfold/Sarpsborg/Nordberg/varsel.xml	http://www.yr.no/place/Norway/Østfold/Sarpsborg/Nordberg/forecast.xml
105	Nordre Bjørnstad	56	Tettbebyggelse	Tettbebyggelse	Settlement	Sarpsborg	Østfold	59.30286	11.05944		http://www.yr.no/stad/Noreg/Østfold/Sarpsborg/Nordre_Bjørnstad/varsel.xml	http://www.yr.no/sted/Norge/Østfold/Sarpsborg/Nordre_Bjørnstad/varsel.xml	http://www.yr.no/place/Norway/Østfold/Sarpsborg/Nordre_Bjørnstad/forecast.xml
105	Opsund	56	Tettbebyggelse	Tettbebyggelse	Settlement	Sarpsborg	Østfold	59.29077	11.12782		http://www.yr.no/stad/Noreg/Østfold/Sarpsborg/Opsund/varsel.xml	http://www.yr.no/sted/Norge/Østfold/Sarpsborg/Opsund/varsel.xml	http://www.yr.no/place/Norway/Østfold/Sarpsborg/Opsund/forecast.xml
105	Rødsøya	56	Øy	Øy	Island	Sarpsborg	Østfold	59.29193	11.14835		http://www.yr.no/stad/Noreg/Østfold/Sarpsborg/Rødsøya/varsel.xml	http://www.yr.no/sted/Norge/Østfold/Sarpsborg/Rødsøya/varsel.xml	http://www.yr.no/place/Norway/Østfold/Sarpsborg/Rødsøya/forecast.xml
105	Sandbakken	56	Del av tettstad	Del av tettsted	Part of a town	Sarpsborg	Østfold	59.25415	11.17864		http://www.yr.no/stad/Noreg/Østfold/Sarpsborg/Sandbakken~48621/varsel.xml	http://www.yr.no/sted/Norge/Østfold/Sarpsborg/Sandbakken~48621/varsel.xml	http://www.yr.no/place/Norway/Østfold/Sarpsborg/Sandbakken~48621/forecast.xml
105	Sandesund	36	Byområde	Byområde	Part of a city	Sarpsborg	Østfold	59.27465	11.09907		http://www.yr.no/stad/Noreg/Østfold/Sarpsborg/Sandesund/varsel.xml	http://www.yr.no/sted/Norge/Østfold/Sarpsborg/Sandesund/varsel.xml	http://www.yr.no/place/Norway/Østfold/Sarpsborg/Sandesund/forecast.xml
105	Sarpsborg	6	By	By	City - large town	Sarpsborg	Østfold	59.27670	11.09954		http://www.yr.no/stad/Noreg/Østfold/Sarpsborg/Sarpsborg/varsel.xml	http://www.yr.no/sted/Norge/Østfold/Sarpsborg/Sarpsborg/varsel.xml	http://www.yr.no/place/Norway/Østfold/Sarpsborg/Sarpsborg/forecast.xml
105	Sarpsborg kirke	55	Kyrkje	Kirke	Church	Sarpsborg	Østfold	59.28251	11.10938		http://www.yr.no/stad/Noreg/Østfold/Sarpsborg/Sarpsborg_kirke/varsel.xml	http://www.yr.no/sted/Norge/Østfold/Sarpsborg/Sarpsborg_kirke/varsel.xml	http://www.yr.no/place/Norway/Østfold/Sarpsborg/Sarpsborg_kirke/forecast.xml
105	Skjeberg	26	Tettstad	Tettsted	Small town	Sarpsborg	Østfold	59.21147	11.19029		http://www.yr.no/stad/Noreg/Østfold/Sarpsborg/Skjeberg/varsel.xml	http://www.yr.no/sted/Norge/Østfold/Sarpsborg/Skjeberg/varsel.xml	http://www.yr.no/place/Norway/Østfold/Sarpsborg/Skjeberg/forecast.xml
105	Skjeberg kirke	55	Kyrkje	Kirke	Church	Sarpsborg	Østfold	59.22893	11.19020		http://www.yr.no/stad/Noreg/Østfold/Sarpsborg/Skjeberg_kirke/varsel.xml	http://www.yr.no/sted/Norge/Østfold/Sarpsborg/Skjeberg_kirke/varsel.xml	http://www.yr.no/place/Norway/Østfold/Sarpsborg/Skjeberg_kirke/forecast.xml
105	Skjebergdalen kirke	55	Kyrkje	Kirke	Church	Sarpsborg	Østfold	59.28487	11.28196		http://www.yr.no/stad/Noreg/Østfold/Sarpsborg/Skjebergdalen_kirke/varsel.xml	http://www.yr.no/sted/Norge/Østfold/Sarpsborg/Skjebergdalen_kirke/varsel.xml	http://www.yr.no/place/Norway/Østfold/Sarpsborg/Skjebergdalen_kirke/forecast.xml
105	Solli kirke	55	Kyrkje	Kirke	Church	Sarpsborg	Østfold	59.32540	10.96372		http://www.yr.no/stad/Noreg/Østfold/Sarpsborg/Solli_kirke/varsel.xml	http://www.yr.no/sted/Norge/Østfold/Sarpsborg/Solli_kirke/varsel.xml	http://www.yr.no/place/Norway/Østfold/Sarpsborg/Solli_kirke/forecast.xml
105	Storhaug	36	Byområde	Byområde	Part of a city	Sarpsborg	Østfold	59.26855	11.12232		http://www.yr.no/stad/Noreg/Østfold/Sarpsborg/Storhaug/varsel.xml	http://www.yr.no/sted/Norge/Østfold/Sarpsborg/Storhaug/varsel.xml	http://www.yr.no/place/Norway/Østfold/Sarpsborg/Storhaug/forecast.xml
105	Tune kirke	55	Kyrkje	Kirke	Church	Sarpsborg	Østfold	59.29215	11.08336		http://www.yr.no/stad/Noreg/Østfold/Sarpsborg/Tune_kirke/varsel.xml	http://www.yr.no/sted/Norge/Østfold/Sarpsborg/Tune_kirke/varsel.xml	http://www.yr.no/place/Norway/Østfold/Sarpsborg/Tune_kirke/forecast.xml
105	Ullerøy kirke	55	Kyrkje	Kirke	Church	Sarpsborg	Østfold	59.20474	11.12111		http://www.yr.no/stad/Noreg/Østfold/Sarpsborg/Ullerøy_kirke/varsel.xml	http://www.yr.no/sted/Norge/Østfold/Sarpsborg/Ullerøy_kirke/varsel.xml	http://www.yr.no/place/Norway/Østfold/Sarpsborg/Ullerøy_kirke/forecast.xml
105	Valaskjold	45	Bygd	Bygd	Village area	Sarpsborg	Østfold	59.29036	11.09697		http://www.yr.no/stad/Noreg/Østfold/Sarpsborg/Valaskjold/varsel.xml	http://www.yr.no/sted/Norge/Østfold/Sarpsborg/Valaskjold/varsel.xml	http://www.yr.no/place/Norway/Østfold/Sarpsborg/Valaskjold/forecast.xml
105	Varteig kirke	55	Kyrkje	Kirke	Church	Sarpsborg	Østfold	59.35053	11.19035		http://www.yr.no/stad/Noreg/Østfold/Sarpsborg/Varteig_kirke/varsel.xml	http://www.yr.no/sted/Norge/Østfold/Sarpsborg/Varteig_kirke/varsel.xml	http://www.yr.no/place/Norway/Østfold/Sarpsborg/Varteig_kirke/forecast.xml
105	Vesteng	56	Tettbebyggelse	Tettbebyggelse	Settlement	Sarpsborg	Østfold	59.28074	11.09194		http://www.yr.no/stad/Noreg/Østfold/Sarpsborg/Vesteng/varsel.xml	http://www.yr.no/sted/Norge/Østfold/Sarpsborg/Vesteng/varsel.xml	http://www.yr.no/place/Norway/Østfold/Sarpsborg/Vesteng/forecast.xml
105	Yven	45	Bygd	Bygd	Village area	Sarpsborg	Østfold	59.28049	11.07087		http://www.yr.no/stad/Noreg/Østfold/Sarpsborg/Yven/varsel.xml	http://www.yr.no/sted/Norge/Østfold/Sarpsborg/Yven/varsel.xml	http://www.yr.no/place/Norway/Østfold/Sarpsborg/Yven/forecast.xml
106	Ambjørnrød	36	Byområde	Byområde	Part of a city	Fredrikstad	Østfold	59.24964	10.92354		http://www.yr.no/stad/Noreg/Østfold/Fredrikstad/Ambjørnrød/varsel.xml	http://www.yr.no/sted/Norge/Østfold/Fredrikstad/Ambjørnrød/varsel.xml	http://www.yr.no/place/Norway/Østfold/Fredrikstad/Ambjørnrød/forecast.xml
106	Apenesfjellet	36	Byområde	Byområde	Part of a city	Fredrikstad	Østfold	59.21290	10.94132		http://www.yr.no/stad/Noreg/Østfold/Fredrikstad/Apenesfjellet/varsel.xml	http://www.yr.no/sted/Norge/Østfold/Fredrikstad/Apenesfjellet/varsel.xml	http://www.yr.no/place/Norway/Østfold/Fredrikstad/Apenesfjellet/forecast.xml
106	Barkedalen	41	Grend	Grend	Village	Fredrikstad	Østfold	59.18500	10.93977		http://www.yr.no/stad/Noreg/Østfold/Fredrikstad/Barkedalen/varsel.xml	http://www.yr.no/sted/Norge/Østfold/Fredrikstad/Barkedalen/varsel.xml	http://www.yr.no/place/Norway/Østfold/Fredrikstad/Barkedalen/forecast.xml
106	Begby	26	Tettstad	Tettsted	Small town	Fredrikstad	Østfold	59.21272	11.00087		http://www.yr.no/stad/Noreg/Østfold/Fredrikstad/Begby/varsel.xml	http://www.yr.no/sted/Norge/Østfold/Fredrikstad/Begby/varsel.xml	http://www.yr.no/place/Norway/Østfold/Fredrikstad/Begby/forecast.xml
106	Borge kirke	55	Kyrkje	Kirke	Church	Fredrikstad	Østfold	59.22783	11.04333		http://www.yr.no/stad/Noreg/Østfold/Fredrikstad/Borge_kirke/varsel.xml	http://www.yr.no/sted/Norge/Østfold/Fredrikstad/Borge_kirke/varsel.xml	http://www.yr.no/place/Norway/Østfold/Fredrikstad/Borge_kirke/forecast.xml
106	Bydalen	36	Byområde	Byområde	Part of a city	Fredrikstad	Østfold	59.21266	10.95084		http://www.yr.no/stad/Noreg/Østfold/Fredrikstad/Bydalen/varsel.xml	http://www.yr.no/sted/Norge/Østfold/Fredrikstad/Bydalen/varsel.xml	http://www.yr.no/place/Norway/Østfold/Fredrikstad/Bydalen/forecast.xml
106	Cicignon	36	Byområde	Byområde	Part of a city	Fredrikstad	Østfold	59.20695	10.94704		http://www.yr.no/stad/Noreg/Østfold/Fredrikstad/Cicignon/varsel.xml	http://www.yr.no/sted/Norge/Østfold/Fredrikstad/Cicignon/varsel.xml	http://www.yr.no/place/Norway/Østfold/Fredrikstad/Cicignon/forecast.xml
106	Damyr	36	Byområde	Byområde	Part of a city	Fredrikstad	Østfold	59.21347	10.94578		http://www.yr.no/stad/Noreg/Østfold/Fredrikstad/Damyr/varsel.xml	http://www.yr.no/sted/Norge/Østfold/Fredrikstad/Damyr/varsel.xml	http://www.yr.no/place/Norway/Østfold/Fredrikstad/Damyr/forecast.xml
106	Engelsviken	45	Tettbebyggelse	Tettbebyggelse	Settlement	Fredrikstad	Østfold	59.25276	10.73828		http://www.yr.no/stad/Noreg/Østfold/Fredrikstad/Engelsviken/varsel.xml	http://www.yr.no/sted/Norge/Østfold/Fredrikstad/Engelsviken/varsel.xml	http://www.yr.no/place/Norway/Østfold/Fredrikstad/Engelsviken/forecast.xml
106	Falchåsen	36	Byområde	Byområde	Part of a city	Fredrikstad	Østfold	59.22582	10.96394		http://www.yr.no/stad/Noreg/Østfold/Fredrikstad/Falchåsen/varsel.xml	http://www.yr.no/sted/Norge/Østfold/Fredrikstad/Falchåsen/varsel.xml	http://www.yr.no/place/Norway/Østfold/Fredrikstad/Falchåsen/forecast.xml
106	Fredrikstad	2	By	By	City - large town	Fredrikstad	Østfold	59.21032	10.94021		http://www.yr.no/stad/Noreg/Østfold/Fredrikstad/Fredrikstad/varsel.xml	http://www.yr.no/sted/Norge/Østfold/Fredrikstad/Fredrikstad/varsel.xml	http://www.yr.no/place/Norway/Østfold/Fredrikstad/Fredrikstad/forecast.xml
106	Fredrikstad Domkirke	55	Kyrkje	Kirke	Church	Fredrikstad	Østfold	59.20937	10.94248		http://www.yr.no/stad/Noreg/Østfold/Fredrikstad/Fredrikstad_Domkirke/varsel.xml	http://www.yr.no/sted/Norge/Østfold/Fredrikstad/Fredrikstad_Domkirke/varsel.xml	http://www.yr.no/place/Norway/Østfold/Fredrikstad/Fredrikstad_Domkirke/forecast.xml
106	Frydenberg	36	Byområde	Byområde	Part of a city	Fredrikstad	Østfold	59.22155	10.93368		http://www.yr.no/stad/Noreg/Østfold/Fredrikstad/Frydenberg/varsel.xml	http://www.yr.no/sted/Norge/Østfold/Fredrikstad/Frydenberg/varsel.xml	http://www.yr.no/place/Norway/Østfold/Fredrikstad/Frydenberg/forecast.xml
106	Gamle Glemmen kirke	55	Kyrkje	Kirke	Church	Fredrikstad	Østfold	59.23765	10.97123		http://www.yr.no/stad/Noreg/Østfold/Fredrikstad/Gamle_Glemmen_kirke/varsel.xml	http://www.yr.no/sted/Norge/Østfold/Fredrikstad/Gamle_Glemmen_kirke/varsel.xml	http://www.yr.no/place/Norway/Østfold/Fredrikstad/Gamle_Glemmen_kirke/forecast.xml
106	Gamlebyen	36	Byområde	Byområde	Part of a city	Fredrikstad	Østfold	59.20320	10.95299		http://www.yr.no/stad/Noreg/Østfold/Fredrikstad/Gamlebyen/varsel.xml	http://www.yr.no/sted/Norge/Østfold/Fredrikstad/Gamlebyen/varsel.xml	http://www.yr.no/place/Norway/Østfold/Fredrikstad/Gamlebyen/forecast.xml
106	Glemmen	36	Byområde	Byområde	Part of a city	Fredrikstad	Østfold	59.21738	10.94675		http://www.yr.no/stad/Noreg/Østfold/Fredrikstad/Glemmen/varsel.xml	http://www.yr.no/sted/Norge/Østfold/Fredrikstad/Glemmen/varsel.xml	http://www.yr.no/place/Norway/Østfold/Fredrikstad/Glemmen/forecast.xml
106	Glemmen nye kirke	55	Kyrkje	Kirke	Church	Fredrikstad	Østfold	59.21568	10.93878		http://www.yr.no/stad/Noreg/Østfold/Fredrikstad/Glemmen_nye_kirke/varsel.xml	http://www.yr.no/sted/Norge/Østfold/Fredrikstad/Glemmen_nye_kirke/varsel.xml	http://www.yr.no/place/Norway/Østfold/Fredrikstad/Glemmen_nye_kirke/forecast.xml
106	Glombo	56	Tettbebyggelse	Tettbebyggelse	Settlement	Fredrikstad	Østfold	59.20470	10.90697		http://www.yr.no/stad/Noreg/Østfold/Fredrikstad/Glombo/varsel.xml	http://www.yr.no/sted/Norge/Østfold/Fredrikstad/Glombo/varsel.xml	http://www.yr.no/place/Norway/Østfold/Fredrikstad/Glombo/forecast.xml
106	Gluppe	56	Del av tettstad	Del av tettsted	Part of a town	Fredrikstad	Østfold	59.24237	10.92316		http://www.yr.no/stad/Noreg/Østfold/Fredrikstad/Gluppe/varsel.xml	http://www.yr.no/sted/Norge/Østfold/Fredrikstad/Gluppe/varsel.xml	http://www.yr.no/place/Norway/Østfold/Fredrikstad/Gluppe/forecast.xml
106	Gressvik	26	Tettstad	Tettsted	Small town	Fredrikstad	Østfold	59.21825	10.90638		http://www.yr.no/stad/Noreg/Østfold/Fredrikstad/Gressvik/varsel.xml	http://www.yr.no/sted/Norge/Østfold/Fredrikstad/Gressvik/varsel.xml	http://www.yr.no/place/Norway/Østfold/Fredrikstad/Gressvik/forecast.xml
106	Gressvik kirke	55	Kyrkje	Kirke	Church	Fredrikstad	Østfold	59.21858	10.89829		http://www.yr.no/stad/Noreg/Østfold/Fredrikstad/Gressvik_kirke/varsel.xml	http://www.yr.no/sted/Norge/Østfold/Fredrikstad/Gressvik_kirke/varsel.xml	http://www.yr.no/place/Norway/Østfold/Fredrikstad/Gressvik_kirke/forecast.xml
106	Gullmoen	56	Tettbebyggelse	Tettbebyggelse	Settlement	Fredrikstad	Østfold	59.18058	11.07808		http://www.yr.no/stad/Noreg/Østfold/Fredrikstad/Gullmoen/varsel.xml	http://www.yr.no/sted/Norge/Østfold/Fredrikstad/Gullmoen/varsel.xml	http://www.yr.no/place/Norway/Østfold/Fredrikstad/Gullmoen/forecast.xml
106	Hasseldalen	41	Grend	Grend	Village	Fredrikstad	Østfold	59.22618	10.80139		http://www.yr.no/stad/Noreg/Østfold/Fredrikstad/Hasseldalen/varsel.xml	http://www.yr.no/sted/Norge/Østfold/Fredrikstad/Hasseldalen/varsel.xml	http://www.yr.no/place/Norway/Østfold/Fredrikstad/Hasseldalen/forecast.xml
106	Hassingen	36	Byområde	Byområde	Part of a city	Fredrikstad	Østfold	59.23161	10.96396		http://www.yr.no/stad/Noreg/Østfold/Fredrikstad/Hassingen/varsel.xml	http://www.yr.no/sted/Norge/Østfold/Fredrikstad/Hassingen/varsel.xml	http://www.yr.no/place/Norway/Østfold/Fredrikstad/Hassingen/forecast.xml
106	Hauge	56	Tettbebyggelse	Tettbebyggelse	Settlement	Fredrikstad	Østfold	59.24646	10.99857		http://www.yr.no/stad/Noreg/Østfold/Fredrikstad/Hauge/varsel.xml	http://www.yr.no/sted/Norge/Østfold/Fredrikstad/Hauge/varsel.xml	http://www.yr.no/place/Norway/Østfold/Fredrikstad/Hauge/forecast.xml
106	Holm	56	Tettbebyggelse	Tettbebyggelse	Settlement	Fredrikstad	Østfold	59.18595	11.07163		http://www.yr.no/stad/Noreg/Østfold/Fredrikstad/Holm/varsel.xml	http://www.yr.no/sted/Norge/Østfold/Fredrikstad/Holm/varsel.xml	http://www.yr.no/place/Norway/Østfold/Fredrikstad/Holm/forecast.xml
106	Holmen	36	Byområde	Byområde	Part of a city	Fredrikstad	Østfold	59.21682	10.93049		http://www.yr.no/stad/Noreg/Østfold/Fredrikstad/Holmen/varsel.xml	http://www.yr.no/sted/Norge/Østfold/Fredrikstad/Holmen/varsel.xml	http://www.yr.no/place/Norway/Østfold/Fredrikstad/Holmen/forecast.xml
106	Husløs	41	Grend	Grend	Village	Fredrikstad	Østfold	59.26980	10.75334		http://www.yr.no/stad/Noreg/Østfold/Fredrikstad/Husløs/varsel.xml	http://www.yr.no/sted/Norge/Østfold/Fredrikstad/Husløs/varsel.xml	http://www.yr.no/place/Norway/Østfold/Fredrikstad/Husløs/forecast.xml
106	Kapelfjellet	36	Byområde	Byområde	Part of a city	Fredrikstad	Østfold	59.21253	10.95650		http://www.yr.no/stad/Noreg/Østfold/Fredrikstad/Kapelfjellet/varsel.xml	http://www.yr.no/sted/Norge/Østfold/Fredrikstad/Kapelfjellet/varsel.xml	http://www.yr.no/place/Norway/Østfold/Fredrikstad/Kapelfjellet/forecast.xml
106	Kjerre	56	Tettbebyggelse	Tettbebyggelse	Settlement	Fredrikstad	Østfold	59.27578	10.77438		http://www.yr.no/stad/Noreg/Østfold/Fredrikstad/Kjerre/varsel.xml	http://www.yr.no/sted/Norge/Østfold/Fredrikstad/Kjerre/varsel.xml	http://www.yr.no/place/Norway/Østfold/Fredrikstad/Kjerre/forecast.xml
106	Kjølstad kirke	55	Kyrkje	Kirke	Church	Fredrikstad	Østfold	59.23600	11.00885		http://www.yr.no/stad/Noreg/Østfold/Fredrikstad/Kjølstad_kirke~2328384/varsel.xml	http://www.yr.no/sted/Norge/Østfold/Fredrikstad/Kjølstad_kirke~2328384/varsel.xml	http://www.yr.no/place/Norway/Østfold/Fredrikstad/Kjølstad_kirke~2328384/forecast.xml
106	Kjølstad kirke	55	Kyrkje	Kirke	Church	Fredrikstad	Østfold	59.23599	11.00885		http://www.yr.no/stad/Noreg/Østfold/Fredrikstad/Kjølstad_kirke~2826288/varsel.xml	http://www.yr.no/sted/Norge/Østfold/Fredrikstad/Kjølstad_kirke~2826288/varsel.xml	http://www.yr.no/place/Norway/Østfold/Fredrikstad/Kjølstad_kirke~2826288/forecast.xml
106	Kjølstadløkka	26	Tettstad	Tettsted	Small town	Fredrikstad	Østfold	59.24077	11.02205		http://www.yr.no/stad/Noreg/Østfold/Fredrikstad/Kjølstadløkka/varsel.xml	http://www.yr.no/sted/Norge/Østfold/Fredrikstad/Kjølstadløkka/varsel.xml	http://www.yr.no/place/Norway/Østfold/Fredrikstad/Kjølstadløkka/forecast.xml
106	Kongsten	36	Byområde	Byområde	Part of a city	Fredrikstad	Østfold	59.19872	10.95463		http://www.yr.no/stad/Noreg/Østfold/Fredrikstad/Kongsten/varsel.xml	http://www.yr.no/sted/Norge/Østfold/Fredrikstad/Kongsten/varsel.xml	http://www.yr.no/place/Norway/Østfold/Fredrikstad/Kongsten/forecast.xml
106	Krossnes	56	Tettbebyggelse	Tettbebyggelse	Settlement	Fredrikstad	Østfold	59.20475	10.89620		http://www.yr.no/stad/Noreg/Østfold/Fredrikstad/Krossnes/varsel.xml	http://www.yr.no/sted/Norge/Østfold/Fredrikstad/Krossnes/varsel.xml	http://www.yr.no/place/Norway/Østfold/Fredrikstad/Krossnes/forecast.xml
106	Kråkerøy kirke	36	Kyrkje	Kirke	Church	Fredrikstad	Østfold	59.18121	10.92816		http://www.yr.no/stad/Noreg/Østfold/Fredrikstad/Kråkerøy_kirke/varsel.xml	http://www.yr.no/sted/Norge/Østfold/Fredrikstad/Kråkerøy_kirke/varsel.xml	http://www.yr.no/place/Norway/Østfold/Fredrikstad/Kråkerøy_kirke/forecast.xml
106	Kuhaugen	56	Tettbebyggelse	Tettbebyggelse	Settlement	Fredrikstad	Østfold	59.18252	11.07562		http://www.yr.no/stad/Noreg/Østfold/Fredrikstad/Kuhaugen/varsel.xml	http://www.yr.no/sted/Norge/Østfold/Fredrikstad/Kuhaugen/varsel.xml	http://www.yr.no/place/Norway/Østfold/Fredrikstad/Kuhaugen/forecast.xml
106	Lahellemoen	36	Byområde	Byområde	Part of a city	Fredrikstad	Østfold	59.21525	10.95814		http://www.yr.no/stad/Noreg/Østfold/Fredrikstad/Lahellemoen/varsel.xml	http://www.yr.no/sted/Norge/Østfold/Fredrikstad/Lahellemoen/varsel.xml	http://www.yr.no/place/Norway/Østfold/Fredrikstad/Lahellemoen/forecast.xml
106	Leie	36	Byområde	Byområde	Part of a city	Fredrikstad	Østfold	59.23161	10.96396		http://www.yr.no/stad/Noreg/Østfold/Fredrikstad/Leie/varsel.xml	http://www.yr.no/sted/Norge/Østfold/Fredrikstad/Leie/varsel.xml	http://www.yr.no/place/Norway/Østfold/Fredrikstad/Leie/forecast.xml
106	Lervik	56	Tettbebyggelse	Tettbebyggelse	Settlement	Fredrikstad	Østfold	59.27121	10.74605		http://www.yr.no/stad/Noreg/Østfold/Fredrikstad/Lervik/varsel.xml	http://www.yr.no/sted/Norge/Østfold/Fredrikstad/Lervik/varsel.xml	http://www.yr.no/place/Norway/Østfold/Fredrikstad/Lervik/forecast.xml
106	Lisleby	36	Byområde	Byområde	Part of a city	Fredrikstad	Østfold	59.23306	10.97714		http://www.yr.no/stad/Noreg/Østfold/Fredrikstad/Lisleby/varsel.xml	http://www.yr.no/sted/Norge/Østfold/Fredrikstad/Lisleby/varsel.xml	http://www.yr.no/place/Norway/Østfold/Fredrikstad/Lisleby/forecast.xml
106	Lunde	41	Grend	Grend	Village	Fredrikstad	Østfold	59.16043	10.93275		http://www.yr.no/stad/Noreg/Østfold/Fredrikstad/Lunde/varsel.xml	http://www.yr.no/sted/Norge/Østfold/Fredrikstad/Lunde/varsel.xml	http://www.yr.no/place/Norway/Østfold/Fredrikstad/Lunde/forecast.xml
106	Lundeskogen	41	Grend	Grend	Village	Fredrikstad	Østfold	59.15626	10.93362		http://www.yr.no/stad/Noreg/Østfold/Fredrikstad/Lundeskogen/varsel.xml	http://www.yr.no/sted/Norge/Østfold/Fredrikstad/Lundeskogen/varsel.xml	http://www.yr.no/place/Norway/Østfold/Fredrikstad/Lundeskogen/forecast.xml
106	Lundheim	36	Byområde	Byområde	Part of a city	Fredrikstad	Østfold	59.21742	10.97802		http://www.yr.no/stad/Noreg/Østfold/Fredrikstad/Lundheim/varsel.xml	http://www.yr.no/sted/Norge/Østfold/Fredrikstad/Lundheim/varsel.xml	http://www.yr.no/place/Norway/Østfold/Fredrikstad/Lundheim/forecast.xml
106	Manstad	56	Tettbebyggelse	Tettbebyggelse	Settlement	Fredrikstad	Østfold	59.26897	10.76922		http://www.yr.no/stad/Noreg/Østfold/Fredrikstad/Manstad/varsel.xml	http://www.yr.no/sted/Norge/Østfold/Fredrikstad/Manstad/varsel.xml	http://www.yr.no/place/Norway/Østfold/Fredrikstad/Manstad/forecast.xml
106	Nabbetorp	56	Tettbebyggelse	Tettbebyggelse	Settlement	Fredrikstad	Østfold	59.21583	10.97056		http://www.yr.no/stad/Noreg/Østfold/Fredrikstad/Nabbetorp/varsel.xml	http://www.yr.no/sted/Norge/Østfold/Fredrikstad/Nabbetorp/varsel.xml	http://www.yr.no/place/Norway/Østfold/Fredrikstad/Nabbetorp/forecast.xml
106	Nylende	56	Tettbebyggelse	Tettbebyggelse	Settlement	Fredrikstad	Østfold	59.30340	10.97334		http://www.yr.no/stad/Noreg/Østfold/Fredrikstad/Nylende/varsel.xml	http://www.yr.no/sted/Norge/Østfold/Fredrikstad/Nylende/varsel.xml	http://www.yr.no/place/Norway/Østfold/Fredrikstad/Nylende/forecast.xml
106	Nøkleby	56	Tettbebyggelse	Tettbebyggelse	Settlement	Fredrikstad	Østfold	59.23621	10.98789		http://www.yr.no/stad/Noreg/Østfold/Fredrikstad/Nøkleby/varsel.xml	http://www.yr.no/sted/Norge/Østfold/Fredrikstad/Nøkleby/varsel.xml	http://www.yr.no/place/Norway/Østfold/Fredrikstad/Nøkleby/forecast.xml
106	Onsøy kirke	55	Kyrkje	Kirke	Church	Fredrikstad	Østfold	59.25630	10.85044		http://www.yr.no/stad/Noreg/Østfold/Fredrikstad/Onsøy_kirke/varsel.xml	http://www.yr.no/sted/Norge/Østfold/Fredrikstad/Onsøy_kirke/varsel.xml	http://www.yr.no/place/Norway/Østfold/Fredrikstad/Onsøy_kirke/forecast.xml
106	Pettersand	36	Byområde	Byområde	Part of a city	Fredrikstad	Østfold	59.23576	10.91988		http://www.yr.no/stad/Noreg/Østfold/Fredrikstad/Pettersand/varsel.xml	http://www.yr.no/sted/Norge/Østfold/Fredrikstad/Pettersand/varsel.xml	http://www.yr.no/place/Norway/Østfold/Fredrikstad/Pettersand/forecast.xml
106	Putten	41	Grend	Grend	Village	Fredrikstad	Østfold	59.13151	10.94394		http://www.yr.no/stad/Noreg/Østfold/Fredrikstad/Putten/varsel.xml	http://www.yr.no/sted/Norge/Østfold/Fredrikstad/Putten/varsel.xml	http://www.yr.no/place/Norway/Østfold/Fredrikstad/Putten/forecast.xml
106	Riverside	36	Byområde	Byområde	Part of a city	Fredrikstad	Østfold	59.20774	10.95209		http://www.yr.no/stad/Noreg/Østfold/Fredrikstad/Riverside/varsel.xml	http://www.yr.no/sted/Norge/Østfold/Fredrikstad/Riverside/varsel.xml	http://www.yr.no/place/Norway/Østfold/Fredrikstad/Riverside/forecast.xml
106	Rolvsøy kirke	36	Kyrkje	Kirke	Church	Fredrikstad	Østfold	59.26597	11.01703		http://www.yr.no/stad/Noreg/Østfold/Fredrikstad/Rolvsøy_kirke/varsel.xml	http://www.yr.no/sted/Norge/Østfold/Fredrikstad/Rolvsøy_kirke/varsel.xml	http://www.yr.no/place/Norway/Østfold/Fredrikstad/Rolvsøy_kirke/forecast.xml
106	Roppestad	41	Grend	Grend	Village	Fredrikstad	Østfold	59.17235	11.03192		http://www.yr.no/stad/Noreg/Østfold/Fredrikstad/Roppestad/varsel.xml	http://www.yr.no/sted/Norge/Østfold/Fredrikstad/Roppestad/varsel.xml	http://www.yr.no/place/Norway/Østfold/Fredrikstad/Roppestad/forecast.xml
106	Rostadneset	26	Tettstad	Tettsted	Small town	Fredrikstad	Østfold	59.29386	10.99584		http://www.yr.no/stad/Noreg/Østfold/Fredrikstad/Rostadneset/varsel.xml	http://www.yr.no/sted/Norge/Østfold/Fredrikstad/Rostadneset/varsel.xml	http://www.yr.no/place/Norway/Østfold/Fredrikstad/Rostadneset/forecast.xml
106	Rød	56	Tettbebyggelse	Tettbebyggelse	Settlement	Fredrikstad	Østfold	59.20453	10.87759		http://www.yr.no/stad/Noreg/Østfold/Fredrikstad/Rød~33668/varsel.xml	http://www.yr.no/sted/Norge/Østfold/Fredrikstad/Rød~33668/varsel.xml	http://www.yr.no/place/Norway/Østfold/Fredrikstad/Rød~33668/forecast.xml
106	Sellebakk	26	Tettstad	Tettsted	Small town	Fredrikstad	Østfold	59.22958	10.99076		http://www.yr.no/stad/Noreg/Østfold/Fredrikstad/Sellebakk/varsel.xml	http://www.yr.no/sted/Norge/Østfold/Fredrikstad/Sellebakk/varsel.xml	http://www.yr.no/place/Norway/Østfold/Fredrikstad/Sellebakk/forecast.xml
106	Skihytta	41	Turisthytte	Turisthytte	Hut	Fredrikstad	Østfold	59.26502	10.95897		http://www.yr.no/stad/Noreg/Østfold/Fredrikstad/Skihytta/varsel.xml	http://www.yr.no/sted/Norge/Østfold/Fredrikstad/Skihytta/varsel.xml	http://www.yr.no/place/Norway/Østfold/Fredrikstad/Skihytta/forecast.xml
106	Skjærvika	26	Tettstad	Tettsted	Small town	Fredrikstad	Østfold	59.21523	11.07411		http://www.yr.no/stad/Noreg/Østfold/Fredrikstad/Skjærvika/varsel.xml	http://www.yr.no/sted/Norge/Østfold/Fredrikstad/Skjærvika/varsel.xml	http://www.yr.no/place/Norway/Østfold/Fredrikstad/Skjærvika/forecast.xml
106	Skjærvika	26	Tettstad	Tettsted	Small town	Fredrikstad	Østfold	59.21523	11.07411		http://www.yr.no/stad/Noreg/Østfold/Fredrikstad/Skjærvika/varsel.xml	http://www.yr.no/sted/Norge/Østfold/Fredrikstad/Skjærvika/varsel.xml	http://www.yr.no/place/Norway/Østfold/Fredrikstad/Skjærvika/forecast.xml
106	Skåra	41	Grend	Grend	Village	Fredrikstad	Østfold	59.24423	10.90074		http://www.yr.no/stad/Noreg/Østfold/Fredrikstad/Skåra/varsel.xml	http://www.yr.no/sted/Norge/Østfold/Fredrikstad/Skåra/varsel.xml	http://www.yr.no/place/Norway/Østfold/Fredrikstad/Skåra/forecast.xml
106	Slevik	56	Tettbebyggelse	Tettbebyggelse	Settlement	Fredrikstad	Østfold	59.19610	10.82461		http://www.yr.no/stad/Noreg/Østfold/Fredrikstad/Slevik~508530/varsel.xml	http://www.yr.no/sted/Norge/Østfold/Fredrikstad/Slevik~508530/varsel.xml	http://www.yr.no/place/Norway/Østfold/Fredrikstad/Slevik~508530/forecast.xml
106	Smertu	36	Byområde	Byområde	Part of a city	Fredrikstad	Østfold	59.20282	10.94031		http://www.yr.no/stad/Noreg/Østfold/Fredrikstad/Smertu/varsel.xml	http://www.yr.no/sted/Norge/Østfold/Fredrikstad/Smertu/varsel.xml	http://www.yr.no/place/Norway/Østfold/Fredrikstad/Smertu/forecast.xml
106	Snekkerhaugen	56	Tettbebyggelse	Tettbebyggelse	Settlement	Fredrikstad	Østfold	59.25538	11.04367		http://www.yr.no/stad/Noreg/Østfold/Fredrikstad/Snekkerhaugen/varsel.xml	http://www.yr.no/sted/Norge/Østfold/Fredrikstad/Snekkerhaugen/varsel.xml	http://www.yr.no/place/Norway/Østfold/Fredrikstad/Snekkerhaugen/forecast.xml
106	Struten	36	Fyr	Fyr	Light house	Fredrikstad	Østfold	59.11802	10.74153		http://www.yr.no/stad/Noreg/Østfold/Fredrikstad/Struten/varsel.xml	http://www.yr.no/sted/Norge/Østfold/Fredrikstad/Struten/varsel.xml	http://www.yr.no/place/Norway/Østfold/Fredrikstad/Struten/forecast.xml
106	Strømtangen	36	Fyr	Fyr	Light house	Fredrikstad	Østfold	59.15108	10.82942	10	http://www.yr.no/stad/Noreg/Østfold/Fredrikstad/Strømtangen/varsel.xml	http://www.yr.no/sted/Norge/Østfold/Fredrikstad/Strømtangen/varsel.xml	http://www.yr.no/place/Norway/Østfold/Fredrikstad/Strømtangen/forecast.xml
106	Sundløkka	56	Tettbebyggelse	Tettbebyggelse	Settlement	Fredrikstad	Østfold	59.26636	11.08999		http://www.yr.no/stad/Noreg/Østfold/Fredrikstad/Sundløkka/varsel.xml	http://www.yr.no/sted/Norge/Østfold/Fredrikstad/Sundløkka/varsel.xml	http://www.yr.no/place/Norway/Østfold/Fredrikstad/Sundløkka/forecast.xml
106	Toremyr	56	Tettbebyggelse	Tettbebyggelse	Settlement	Fredrikstad	Østfold	59.18265	11.06664		http://www.yr.no/stad/Noreg/Østfold/Fredrikstad/Toremyr/varsel.xml	http://www.yr.no/sted/Norge/Østfold/Fredrikstad/Toremyr/varsel.xml	http://www.yr.no/place/Norway/Østfold/Fredrikstad/Toremyr/forecast.xml
106	Torp	26	Tettstad	Tettsted	Small town	Fredrikstad	Østfold	59.24409	11.02299		http://www.yr.no/stad/Noreg/Østfold/Fredrikstad/Torp/varsel.xml	http://www.yr.no/sted/Norge/Østfold/Fredrikstad/Torp/varsel.xml	http://www.yr.no/place/Norway/Østfold/Fredrikstad/Torp/forecast.xml
106	Torsnes kirke	55	Kyrkje	Kirke	Church	Fredrikstad	Østfold	59.18843	11.07198		http://www.yr.no/stad/Noreg/Østfold/Fredrikstad/Torsnes_kirke/varsel.xml	http://www.yr.no/sted/Norge/Østfold/Fredrikstad/Torsnes_kirke/varsel.xml	http://www.yr.no/place/Norway/Østfold/Fredrikstad/Torsnes_kirke/forecast.xml
106	Trara	36	Byområde	Byområde	Part of a city	Fredrikstad	Østfold	59.22187	10.94550		http://www.yr.no/stad/Noreg/Østfold/Fredrikstad/Trara/varsel.xml	http://www.yr.no/sted/Norge/Østfold/Fredrikstad/Trara/varsel.xml	http://www.yr.no/place/Norway/Østfold/Fredrikstad/Trara/forecast.xml
106	Trolldalen	56	Tettbebyggelse	Tettbebyggelse	Settlement	Fredrikstad	Østfold	59.14634	10.93970		http://www.yr.no/stad/Noreg/Østfold/Fredrikstad/Trolldalen/varsel.xml	http://www.yr.no/sted/Norge/Østfold/Fredrikstad/Trolldalen/varsel.xml	http://www.yr.no/place/Norway/Østfold/Fredrikstad/Trolldalen/forecast.xml
106	Valle	56	Tettbebyggelse	Tettbebyggelse	Settlement	Fredrikstad	Østfold	59.26056	11.00764		http://www.yr.no/stad/Noreg/Østfold/Fredrikstad/Valle/varsel.xml	http://www.yr.no/sted/Norge/Østfold/Fredrikstad/Valle/varsel.xml	http://www.yr.no/place/Norway/Østfold/Fredrikstad/Valle/forecast.xml
106	Vaterland	56	Tettbebyggelse	Tettbebyggelse	Settlement	Fredrikstad	Østfold	59.19740	10.94805		http://www.yr.no/stad/Noreg/Østfold/Fredrikstad/Vaterland/varsel.xml	http://www.yr.no/sted/Norge/Østfold/Fredrikstad/Vaterland/varsel.xml	http://www.yr.no/place/Norway/Østfold/Fredrikstad/Vaterland/forecast.xml
106	Veel	26	Tettstad	Tettsted	Small town	Fredrikstad	Østfold	59.18460	11.04921		http://www.yr.no/stad/Noreg/Østfold/Fredrikstad/Veel/varsel.xml	http://www.yr.no/sted/Norge/Østfold/Fredrikstad/Veel/varsel.xml	http://www.yr.no/place/Norway/Østfold/Fredrikstad/Veel/forecast.xml
106	Vestre Vikene	41	Grend	Grend	Village	Fredrikstad	Østfold	59.21804	10.79134		http://www.yr.no/stad/Noreg/Østfold/Fredrikstad/Vestre_Vikene/varsel.xml	http://www.yr.no/sted/Norge/Østfold/Fredrikstad/Vestre_Vikene/varsel.xml	http://www.yr.no/place/Norway/Østfold/Fredrikstad/Vestre_Vikene/forecast.xml
106	Veum	41	Grend	Grend	Village	Fredrikstad	Østfold	59.25243	10.93254		http://www.yr.no/stad/Noreg/Østfold/Fredrikstad/Veum/varsel.xml	http://www.yr.no/sted/Norge/Østfold/Fredrikstad/Veum/varsel.xml	http://www.yr.no/place/Norway/Østfold/Fredrikstad/Veum/forecast.xml
106	Vikene	56	Tettbebyggelse	Tettbebyggelse	Settlement	Fredrikstad	Østfold	59.21409	10.79288		http://www.yr.no/stad/Noreg/Østfold/Fredrikstad/Vikene/varsel.xml	http://www.yr.no/sted/Norge/Østfold/Fredrikstad/Vikene/varsel.xml	http://www.yr.no/place/Norway/Østfold/Fredrikstad/Vikene/forecast.xml
106	Viker	56	Tettbebyggelse	Tettbebyggelse	Settlement	Fredrikstad	Østfold	59.18866	10.87530		http://www.yr.no/stad/Noreg/Østfold/Fredrikstad/Viker/varsel.xml	http://www.yr.no/sted/Norge/Østfold/Fredrikstad/Viker/varsel.xml	http://www.yr.no/place/Norway/Østfold/Fredrikstad/Viker/forecast.xml
106	Ødegården	41	Grend	Grend	Village	Fredrikstad	Østfold	59.15820	10.94636		http://www.yr.no/stad/Noreg/Østfold/Fredrikstad/Ødegården/varsel.xml	http://www.yr.no/sted/Norge/Østfold/Fredrikstad/Ødegården/varsel.xml	http://www.yr.no/place/Norway/Østfold/Fredrikstad/Ødegården/forecast.xml
106	Ørebekk	36	Byområde	Byområde	Part of a city	Fredrikstad	Østfold	59.23009	10.90600		http://www.yr.no/stad/Noreg/Østfold/Fredrikstad/Ørebekk/varsel.xml	http://www.yr.no/sted/Norge/Østfold/Fredrikstad/Ørebekk/varsel.xml	http://www.yr.no/place/Norway/Østfold/Fredrikstad/Ørebekk/forecast.xml
106	Ørmen	41	Grend	Grend	Village	Fredrikstad	Østfold	59.30592	10.88861		http://www.yr.no/stad/Noreg/Østfold/Fredrikstad/Ørmen/varsel.xml	http://www.yr.no/sted/Norge/Østfold/Fredrikstad/Ørmen/varsel.xml	http://www.yr.no/place/Norway/Østfold/Fredrikstad/Ørmen/forecast.xml
106	Østre Fredrikstad kirke	55	Kyrkje	Kirke	Church	Fredrikstad	Østfold	59.20227	10.95256		http://www.yr.no/stad/Noreg/Østfold/Fredrikstad/Østre_Fredrikstad_kirke/varsel.xml	http://www.yr.no/sted/Norge/Østfold/Fredrikstad/Østre_Fredrikstad_kirke/varsel.xml	http://www.yr.no/place/Norway/Østfold/Fredrikstad/Østre_Fredrikstad_kirke/forecast.xml
106	Østre Vikene	41	Grend	Grend	Village	Fredrikstad	Østfold	59.21004	10.80360		http://www.yr.no/stad/Noreg/Østfold/Fredrikstad/Østre_Vikene/varsel.xml	http://www.yr.no/sted/Norge/Østfold/Fredrikstad/Østre_Vikene/varsel.xml	http://www.yr.no/place/Norway/Østfold/Fredrikstad/Østre_Vikene/forecast.xml
106	Øyenkilen	41	Grend	Grend	Village	Fredrikstad	Østfold	59.17171	10.85067		http://www.yr.no/stad/Noreg/Østfold/Fredrikstad/Øyenkilen/varsel.xml	http://www.yr.no/sted/Norge/Østfold/Fredrikstad/Øyenkilen/varsel.xml	http://www.yr.no/place/Norway/Østfold/Fredrikstad/Øyenkilen/forecast.xml
106	Ålestranda	41	Grend	Grend	Village	Fredrikstad	Østfold	59.21164	10.89685		http://www.yr.no/stad/Noreg/Østfold/Fredrikstad/Ålestranda/varsel.xml	http://www.yr.no/sted/Norge/Østfold/Fredrikstad/Ålestranda/varsel.xml	http://www.yr.no/place/Norway/Østfold/Fredrikstad/Ålestranda/forecast.xml
106	Årum	56	Tettbebyggelse	Tettbebyggelse	Settlement	Fredrikstad	Østfold	59.25793	11.10516		http://www.yr.no/stad/Noreg/Østfold/Fredrikstad/Årum~48615/varsel.xml	http://www.yr.no/sted/Norge/Østfold/Fredrikstad/Årum~48615/varsel.xml	http://www.yr.no/place/Norway/Østfold/Fredrikstad/Årum~48615/forecast.xml
111	Dypedal	56	Tettbebyggelse	Tettbebyggelse	Settlement	Hvaler	Østfold	59.09043	10.91618		http://www.yr.no/stad/Noreg/Østfold/Hvaler/Dypedal/varsel.xml	http://www.yr.no/sted/Norge/Østfold/Hvaler/Dypedal/varsel.xml	http://www.yr.no/place/Norway/Østfold/Hvaler/Dypedal/forecast.xml
111	Hauge	56	Tettbebyggelse	Tettbebyggelse	Settlement	Hvaler	Østfold	59.10251	10.87165		http://www.yr.no/stad/Noreg/Østfold/Hvaler/Hauge/varsel.xml	http://www.yr.no/sted/Norge/Østfold/Hvaler/Hauge/varsel.xml	http://www.yr.no/place/Norway/Østfold/Hvaler/Hauge/forecast.xml
111	Herføl	56	Øy i sjø	Øy i sjø	Island in sea	Hvaler	Østfold	58.99369	11.05033		http://www.yr.no/stad/Noreg/Østfold/Hvaler/Herføl~23320/varsel.xml	http://www.yr.no/sted/Norge/Østfold/Hvaler/Herføl~23320/varsel.xml	http://www.yr.no/place/Norway/Østfold/Hvaler/Herføl~23320/forecast.xml
111	Hvaler kirke	55	Kyrkje	Kirke	Church	Hvaler	Østfold	59.03267	11.02576		http://www.yr.no/stad/Noreg/Østfold/Hvaler/Hvaler_kirke/varsel.xml	http://www.yr.no/sted/Norge/Østfold/Hvaler/Hvaler_kirke/varsel.xml	http://www.yr.no/place/Norway/Østfold/Hvaler/Hvaler_kirke/forecast.xml
111	Nedgården	46	Bustadhus	Bolighus	Villa	Hvaler	Østfold	59.01538	11.06693		http://www.yr.no/stad/Noreg/Østfold/Hvaler/Nedgården/varsel.xml	http://www.yr.no/sted/Norge/Østfold/Hvaler/Nedgården/varsel.xml	http://www.yr.no/place/Norway/Østfold/Hvaler/Nedgården/forecast.xml
111	Papper	45	Bygd	Bygd	Village area	Hvaler	Østfold	59.11459	10.85726		http://www.yr.no/stad/Noreg/Østfold/Hvaler/Papper/varsel.xml	http://www.yr.no/sted/Norge/Østfold/Hvaler/Papper/varsel.xml	http://www.yr.no/place/Norway/Østfold/Hvaler/Papper/forecast.xml
111	Rød	56	Tettbebyggelse	Tettbebyggelse	Settlement	Hvaler	Østfold	59.07289	10.94301		http://www.yr.no/stad/Noreg/Østfold/Hvaler/Rød/varsel.xml	http://www.yr.no/sted/Norge/Østfold/Hvaler/Rød/varsel.xml	http://www.yr.no/place/Norway/Østfold/Hvaler/Rød/forecast.xml
111	Sand	56	Tettbebyggelse	Tettbebyggelse	Settlement	Hvaler	Østfold	59.08478	10.92834		http://www.yr.no/stad/Noreg/Østfold/Hvaler/Sand/varsel.xml	http://www.yr.no/sted/Norge/Østfold/Hvaler/Sand/varsel.xml	http://www.yr.no/place/Norway/Østfold/Hvaler/Sand/forecast.xml
111	Skipstadsand	56	Tettbebyggelse	Tettbebyggelse	Settlement	Hvaler	Østfold	59.06117	10.95703		http://www.yr.no/stad/Noreg/Østfold/Hvaler/Skipstadsand/varsel.xml	http://www.yr.no/sted/Norge/Østfold/Hvaler/Skipstadsand/varsel.xml	http://www.yr.no/place/Norway/Østfold/Hvaler/Skipstadsand/forecast.xml
111	Skjelsbu	56	Tettbebyggelse	Tettbebyggelse	Settlement	Hvaler	Østfold	59.09682	10.91349		http://www.yr.no/stad/Noreg/Østfold/Hvaler/Skjelsbu/varsel.xml	http://www.yr.no/sted/Norge/Østfold/Hvaler/Skjelsbu/varsel.xml	http://www.yr.no/place/Norway/Østfold/Hvaler/Skjelsbu/forecast.xml
111	Skjærhalden	21	Tettstad	Tettsted	Small town	Hvaler	Østfold	59.02526	11.03685		http://www.yr.no/stad/Noreg/Østfold/Hvaler/Skjærhalden/varsel.xml	http://www.yr.no/sted/Norge/Østfold/Hvaler/Skjærhalden/varsel.xml	http://www.yr.no/place/Norway/Østfold/Hvaler/Skjærhalden/forecast.xml
111	Spjærøy kirke	55	Kyrkje	Kirke	Church	Hvaler	Østfold	59.08835	10.91840		http://www.yr.no/stad/Noreg/Østfold/Hvaler/Spjærøy_kirke/varsel.xml	http://www.yr.no/sted/Norge/Østfold/Hvaler/Spjærøy_kirke/varsel.xml	http://www.yr.no/place/Norway/Østfold/Hvaler/Spjærøy_kirke/forecast.xml
111	Torbjørnskjær	36	Fyr	Fyr	Light house	Hvaler	Østfold	58.99666	10.78203		http://www.yr.no/stad/Noreg/Østfold/Hvaler/Torbjørnskjær/varsel.xml	http://www.yr.no/sted/Norge/Østfold/Hvaler/Torbjørnskjær/varsel.xml	http://www.yr.no/place/Norway/Østfold/Hvaler/Torbjørnskjær/forecast.xml
111	Utgård	56	Tettbebyggelse	Tettbebyggelse	Settlement	Hvaler	Østfold	59.08424	10.87864		http://www.yr.no/stad/Noreg/Østfold/Hvaler/Utgård/varsel.xml	http://www.yr.no/sted/Norge/Østfold/Hvaler/Utgård/varsel.xml	http://www.yr.no/place/Norway/Østfold/Hvaler/Utgård/forecast.xml
111	Vesterøy	56	Øy i sjø	Øy i sjø	Island in sea	Hvaler	Østfold	59.08775	10.86885		http://www.yr.no/stad/Noreg/Østfold/Hvaler/Vesterøy/varsel.xml	http://www.yr.no/sted/Norge/Østfold/Hvaler/Vesterøy/varsel.xml	http://www.yr.no/place/Norway/Østfold/Hvaler/Vesterøy/forecast.xml
111	Viker	41	Grend	Grend	Village	Hvaler	Østfold	59.03833	10.94876		http://www.yr.no/stad/Noreg/Østfold/Hvaler/Viker/varsel.xml	http://www.yr.no/sted/Norge/Østfold/Hvaler/Viker/varsel.xml	http://www.yr.no/place/Norway/Østfold/Hvaler/Viker/forecast.xml
111	Øvre Utgård	41	Grend	Grend	Village	Hvaler	Østfold	59.08495	10.87750		http://www.yr.no/stad/Noreg/Østfold/Hvaler/Øvre_Utgård/varsel.xml	http://www.yr.no/sted/Norge/Østfold/Hvaler/Øvre_Utgård/varsel.xml	http://www.yr.no/place/Norway/Østfold/Hvaler/Øvre_Utgård/forecast.xml
118	Aremark	45	Bygd	Bygd	Village area	Aremark	Østfold	59.24621	11.68277		http://www.yr.no/stad/Noreg/Østfold/Aremark/Aremark~2379071/varsel.xml	http://www.yr.no/sted/Norge/Østfold/Aremark/Aremark~2379071/varsel.xml	http://www.yr.no/place/Norway/Østfold/Aremark/Aremark~2379071/forecast.xml
118	Aremark kirke	55	Kyrkje	Kirke	Church	Aremark	Østfold	59.24471	11.68186		http://www.yr.no/stad/Noreg/Østfold/Aremark/Aremark_kirke/varsel.xml	http://www.yr.no/sted/Norge/Østfold/Aremark/Aremark_kirke/varsel.xml	http://www.yr.no/place/Norway/Østfold/Aremark/Aremark_kirke/forecast.xml
118	Aspern	56	Innsjø	Innsjø	Large lake	Aremark	Østfold	59.15634	11.70387		http://www.yr.no/stad/Noreg/Østfold/Aremark/Aspern/varsel.xml	http://www.yr.no/sted/Norge/Østfold/Aremark/Aspern/varsel.xml	http://www.yr.no/place/Norway/Østfold/Aremark/Aspern/forecast.xml
118	Bjørkebekk	41	Grend	Grend	Village	Aremark	Østfold	59.14325	11.75300		http://www.yr.no/stad/Noreg/Østfold/Aremark/Bjørkebekk/varsel.xml	http://www.yr.no/sted/Norge/Østfold/Aremark/Bjørkebekk/varsel.xml	http://www.yr.no/place/Norway/Østfold/Aremark/Bjørkebekk/forecast.xml
118	Budalsvika	41	Turisthytte	Turisthytte	Hut	Aremark	Østfold	59.05219	11.73725	170	http://www.yr.no/stad/Noreg/Østfold/Aremark/Budalsvika/varsel.xml	http://www.yr.no/sted/Norge/Østfold/Aremark/Budalsvika/varsel.xml	http://www.yr.no/place/Norway/Østfold/Aremark/Budalsvika/forecast.xml
118	Fossby	26	Bygd	Bygd	Village area	Aremark	Østfold	59.22164	11.69643		http://www.yr.no/stad/Noreg/Østfold/Aremark/Fossby/varsel.xml	http://www.yr.no/sted/Norge/Østfold/Aremark/Fossby/varsel.xml	http://www.yr.no/place/Norway/Østfold/Aremark/Fossby/forecast.xml
118	Holmgill kirke	55	Kyrkje	Kirke	Church	Aremark	Østfold	59.14277	11.74122		http://www.yr.no/stad/Noreg/Østfold/Aremark/Holmgill_kirke/varsel.xml	http://www.yr.no/sted/Norge/Østfold/Aremark/Holmgill_kirke/varsel.xml	http://www.yr.no/place/Norway/Østfold/Aremark/Holmgill_kirke/forecast.xml
118	Store Le	56	Innsjø	Innsjø	Large lake	Aremark	Østfold	59.21563	11.84332		http://www.yr.no/stad/Noreg/Østfold/Aremark/Store_Le/varsel.xml	http://www.yr.no/sted/Norge/Østfold/Aremark/Store_Le/varsel.xml	http://www.yr.no/place/Norway/Østfold/Aremark/Store_Le/forecast.xml
118	Strømsfoss	45	Bygd	Bygd	Village area	Aremark	Østfold	59.30079	11.66045		http://www.yr.no/stad/Noreg/Østfold/Aremark/Strømsfoss/varsel.xml	http://www.yr.no/sted/Norge/Østfold/Aremark/Strømsfoss/varsel.xml	http://www.yr.no/place/Norway/Østfold/Aremark/Strømsfoss/forecast.xml
118	Trollhøgda	56	Ås	Ås	Hill	Aremark	Østfold	59.23447	11.78612		http://www.yr.no/stad/Noreg/Østfold/Aremark/Trollhøgda/varsel.xml	http://www.yr.no/sted/Norge/Østfold/Aremark/Trollhøgda/varsel.xml	http://www.yr.no/place/Norway/Østfold/Aremark/Trollhøgda/forecast.xml
119	Børresrud	41	Grend	Grend	Village	Marker	Østfold	59.58314	11.56450		http://www.yr.no/stad/Noreg/Østfold/Marker/Børresrud/varsel.xml	http://www.yr.no/sted/Norge/Østfold/Marker/Børresrud/varsel.xml	http://www.yr.no/place/Norway/Østfold/Marker/Børresrud/forecast.xml
119	Klund kirke	55	Kyrkje	Kirke	Church	Marker	Østfold	59.52449	11.63694		http://www.yr.no/stad/Noreg/Østfold/Marker/Klund_kirke/varsel.xml	http://www.yr.no/sted/Norge/Østfold/Marker/Klund_kirke/varsel.xml	http://www.yr.no/place/Norway/Østfold/Marker/Klund_kirke/forecast.xml
119	Kroksund	41	Grend	Grend	Village	Marker	Østfold	59.61870	11.59227		http://www.yr.no/stad/Noreg/Østfold/Marker/Kroksund/varsel.xml	http://www.yr.no/sted/Norge/Østfold/Marker/Kroksund/varsel.xml	http://www.yr.no/place/Norway/Østfold/Marker/Kroksund/forecast.xml
119	Otteid vestre	46	Bustadhus	Bolighus	Villa	Marker	Østfold	59.35135	11.70983		http://www.yr.no/stad/Noreg/Østfold/Marker/Otteid_vestre/varsel.xml	http://www.yr.no/sted/Norge/Østfold/Marker/Otteid_vestre/varsel.xml	http://www.yr.no/place/Norway/Østfold/Marker/Otteid_vestre/forecast.xml
119	Rødenes kirke	55	Kyrkje	Kirke	Church	Marker	Østfold	59.58806	11.59473		http://www.yr.no/stad/Noreg/Østfold/Marker/Rødenes_kirke/varsel.xml	http://www.yr.no/sted/Norge/Østfold/Marker/Rødenes_kirke/varsel.xml	http://www.yr.no/place/Norway/Østfold/Marker/Rødenes_kirke/forecast.xml
119	Ørje	21	Tettstad	Tettsted	Small town	Marker	Østfold	59.48023	11.66016		http://www.yr.no/stad/Noreg/Østfold/Marker/Ørje/varsel.xml	http://www.yr.no/sted/Norge/Østfold/Marker/Ørje/varsel.xml	http://www.yr.no/place/Norway/Østfold/Marker/Ørje/forecast.xml
119	Ørje kirke	55	Kyrkje	Kirke	Church	Marker	Østfold	59.48114	11.65958		http://www.yr.no/stad/Noreg/Østfold/Marker/Ørje_kirke/varsel.xml	http://www.yr.no/sted/Norge/Østfold/Marker/Ørje_kirke/varsel.xml	http://www.yr.no/place/Norway/Østfold/Marker/Ørje_kirke/forecast.xml
119	Øymark kirke	55	Kyrkje	Kirke	Church	Marker	Østfold	59.41982	11.66393		http://www.yr.no/stad/Noreg/Østfold/Marker/Øymark_kirke/varsel.xml	http://www.yr.no/sted/Norge/Østfold/Marker/Øymark_kirke/varsel.xml	http://www.yr.no/place/Norway/Østfold/Marker/Øymark_kirke/forecast.xml
121	Haukenestårnet	41	Turisthytte	Turisthytte	Hut	Rømskog	Østfold	59.71608	11.75641		http://www.yr.no/stad/Noreg/Østfold/Rømskog/Haukenestårnet/varsel.xml	http://www.yr.no/sted/Norge/Østfold/Rømskog/Haukenestårnet/varsel.xml	http://www.yr.no/place/Norway/Østfold/Rømskog/Haukenestårnet/forecast.xml
121	Rømskog	16	Kommune	Kommune	Municipality	Rømskog	Østfold	59.74968	11.81122		http://www.yr.no/stad/Noreg/Østfold/Rømskog/Rømskog/varsel.xml	http://www.yr.no/sted/Norge/Østfold/Rømskog/Rømskog/varsel.xml	http://www.yr.no/place/Norway/Østfold/Rømskog/Rømskog/forecast.xml
121	Rømskog kirke	55	Kyrkje	Kirke	Church	Rømskog	Østfold	59.72690	11.81638		http://www.yr.no/stad/Noreg/Østfold/Rømskog/Rømskog_kirke/varsel.xml	http://www.yr.no/sted/Norge/Østfold/Rømskog/Rømskog_kirke/varsel.xml	http://www.yr.no/place/Norway/Østfold/Rømskog/Rømskog_kirke/forecast.xml
121	Røvasshøgda	56	Ås	Ås	Hill	Rømskog	Østfold	59.76082	11.90772		http://www.yr.no/stad/Noreg/Østfold/Rømskog/Røvasshøgda/varsel.xml	http://www.yr.no/sted/Norge/Østfold/Rømskog/Røvasshøgda/varsel.xml	http://www.yr.no/place/Norway/Østfold/Rømskog/Røvasshøgda/forecast.xml
121	Slavasshøgda	56	Ås	Ås	Hill	Rømskog	Østfold	59.68456	11.73196	336	http://www.yr.no/stad/Noreg/Østfold/Rømskog/Slavasshøgda/varsel.xml	http://www.yr.no/sted/Norge/Østfold/Rømskog/Slavasshøgda/varsel.xml	http://www.yr.no/place/Norway/Østfold/Rømskog/Slavasshøgda/forecast.xml
121	Trandum	41	Grend	Grend	Village	Rømskog	Østfold	59.75531	11.81843		http://www.yr.no/stad/Noreg/Østfold/Rømskog/Trandum/varsel.xml	http://www.yr.no/sted/Norge/Østfold/Rømskog/Trandum/varsel.xml	http://www.yr.no/place/Norway/Østfold/Rømskog/Trandum/forecast.xml
121	Trandumseter	56	Gardsbruk	Gårdsbruk	Farm	Rømskog	Østfold	59.77991	11.81236		http://www.yr.no/stad/Noreg/Østfold/Rømskog/Trandumseter/varsel.xml	http://www.yr.no/sted/Norge/Østfold/Rømskog/Trandumseter/varsel.xml	http://www.yr.no/place/Norway/Østfold/Rømskog/Trandumseter/forecast.xml
121	Trosterud	56	Bru	Bro	Bridge	Rømskog	Østfold	59.65559	11.86056		http://www.yr.no/stad/Noreg/Østfold/Rømskog/Trosterud/varsel.xml	http://www.yr.no/sted/Norge/Østfold/Rømskog/Trosterud/varsel.xml	http://www.yr.no/place/Norway/Østfold/Rømskog/Trosterud/forecast.xml
121	Tørnby	56	Tettbebyggelse	Tettbebyggelse	Settlement	Rømskog	Østfold	59.74536	11.80651		http://www.yr.no/stad/Noreg/Østfold/Rømskog/Tørnby/varsel.xml	http://www.yr.no/sted/Norge/Østfold/Rømskog/Tørnby/varsel.xml	http://www.yr.no/place/Norway/Østfold/Rømskog/Tørnby/forecast.xml
122	Bechs kapell	55	Kyrkje	Kirke	Church	Trøgstad	Østfold	59.67316	11.25537		http://www.yr.no/stad/Noreg/Østfold/Trøgstad/Bechs_kapell/varsel.xml	http://www.yr.no/sted/Norge/Østfold/Trøgstad/Bechs_kapell/varsel.xml	http://www.yr.no/place/Norway/Østfold/Trøgstad/Bechs_kapell/forecast.xml
122	Båstad kirke	36	Kyrkje	Kirke	Church	Trøgstad	Østfold	59.69498	11.29525		http://www.yr.no/stad/Noreg/Østfold/Trøgstad/Båstad_kirke/varsel.xml	http://www.yr.no/sted/Norge/Østfold/Trøgstad/Båstad_kirke/varsel.xml	http://www.yr.no/place/Norway/Østfold/Trøgstad/Båstad_kirke/forecast.xml
122	Havnås	56	Tettbebyggelse	Tettbebyggelse	Settlement	Trøgstad	Østfold	59.61731	11.41020		http://www.yr.no/stad/Noreg/Østfold/Trøgstad/Havnås~61843/varsel.xml	http://www.yr.no/sted/Norge/Østfold/Trøgstad/Havnås~61843/varsel.xml	http://www.yr.no/place/Norway/Østfold/Trøgstad/Havnås~61843/forecast.xml
122	Heiås	56	Tettbebyggelse	Tettbebyggelse	Settlement	Trøgstad	Østfold	59.70206	11.29863		http://www.yr.no/stad/Noreg/Østfold/Trøgstad/Heiås/varsel.xml	http://www.yr.no/sted/Norge/Østfold/Trøgstad/Heiås/varsel.xml	http://www.yr.no/place/Norway/Østfold/Trøgstad/Heiås/forecast.xml
122	Mørkfoss	41	Grend	Grend	Village	Trøgstad	Østfold	59.65885	11.22572		http://www.yr.no/stad/Noreg/Østfold/Trøgstad/Mørkfoss/varsel.xml	http://www.yr.no/sted/Norge/Østfold/Trøgstad/Mørkfoss/varsel.xml	http://www.yr.no/place/Norway/Østfold/Trøgstad/Mørkfoss/forecast.xml
122	Skjønhaug	26	Tettstad	Tettsted	Small town	Trøgstad	Østfold	59.64069	11.31591		http://www.yr.no/stad/Noreg/Østfold/Trøgstad/Skjønhaug/varsel.xml	http://www.yr.no/sted/Norge/Østfold/Trøgstad/Skjønhaug/varsel.xml	http://www.yr.no/place/Norway/Østfold/Trøgstad/Skjønhaug/forecast.xml
122	Tosebygda	45	Bygd	Bygd	Village area	Trøgstad	Østfold	59.64086	11.23401		http://www.yr.no/stad/Noreg/Østfold/Trøgstad/Tosebygda/varsel.xml	http://www.yr.no/sted/Norge/Østfold/Trøgstad/Tosebygda/varsel.xml	http://www.yr.no/place/Norway/Østfold/Trøgstad/Tosebygda/forecast.xml
122	Trøgstad	16	Kommune	Kommune	Municipality	Trøgstad	Østfold	59.64141	11.31530		http://www.yr.no/stad/Noreg/Østfold/Trøgstad/Trøgstad/varsel.xml	http://www.yr.no/sted/Norge/Østfold/Trøgstad/Trøgstad/varsel.xml	http://www.yr.no/place/Norway/Østfold/Trøgstad/Trøgstad/forecast.xml
122	Trøgstad kirke	55	Kyrkje	Kirke	Church	Trøgstad	Østfold	59.63663	11.31265		http://www.yr.no/stad/Noreg/Østfold/Trøgstad/Trøgstad_kirke/varsel.xml	http://www.yr.no/sted/Norge/Østfold/Trøgstad/Trøgstad_kirke/varsel.xml	http://www.yr.no/place/Norway/Østfold/Trøgstad/Trøgstad_kirke/forecast.xml
123	Heli kirke	55	Kyrkje	Kirke	Church	Spydeberg	Østfold	59.56311	11.09642		http://www.yr.no/stad/Noreg/Østfold/Spydeberg/Heli_kirke/varsel.xml	http://www.yr.no/sted/Norge/Østfold/Spydeberg/Heli_kirke/varsel.xml	http://www.yr.no/place/Norway/Østfold/Spydeberg/Heli_kirke/forecast.xml
123	Hovin kirke	55	Kyrkje	Kirke	Church	Spydeberg	Østfold	59.63079	11.12035		http://www.yr.no/stad/Noreg/Østfold/Spydeberg/Hovin_kirke/varsel.xml	http://www.yr.no/sted/Norge/Østfold/Spydeberg/Hovin_kirke/varsel.xml	http://www.yr.no/place/Norway/Østfold/Spydeberg/Hovin_kirke/forecast.xml
123	Mørk søndre	56	Gardsbruk	Gårdsbruk	Farm	Spydeberg	Østfold	59.52529	11.00494		http://www.yr.no/stad/Noreg/Østfold/Spydeberg/Mørk_søndre/varsel.xml	http://www.yr.no/sted/Norge/Østfold/Spydeberg/Mørk_søndre/varsel.xml	http://www.yr.no/place/Norway/Østfold/Spydeberg/Mørk_søndre/forecast.xml
123	Spydeberg	16	Kommune	Kommune	Municipality	Spydeberg	Østfold	59.62028	11.08069		http://www.yr.no/stad/Noreg/Østfold/Spydeberg/Spydeberg/varsel.xml	http://www.yr.no/sted/Norge/Østfold/Spydeberg/Spydeberg/varsel.xml	http://www.yr.no/place/Norway/Østfold/Spydeberg/Spydeberg/forecast.xml
123	Spydeberg	26	Tettstad	Tettsted	Small town	Spydeberg	Østfold	59.61709	11.08559		http://www.yr.no/stad/Noreg/Østfold/Spydeberg/Spydeberg~60857/varsel.xml	http://www.yr.no/sted/Norge/Østfold/Spydeberg/Spydeberg~60857/varsel.xml	http://www.yr.no/place/Norway/Østfold/Spydeberg/Spydeberg~60857/forecast.xml
123	Spydeberg kirke	55	Kyrkje	Kirke	Church	Spydeberg	Østfold	59.59503	11.06876		http://www.yr.no/stad/Noreg/Østfold/Spydeberg/Spydeberg_kirke/varsel.xml	http://www.yr.no/sted/Norge/Østfold/Spydeberg/Spydeberg_kirke/varsel.xml	http://www.yr.no/place/Norway/Østfold/Spydeberg/Spydeberg_kirke/forecast.xml
123	Tomter	56	Gardsbruk	Gårdsbruk	Farm	Spydeberg	Østfold	59.61192	11.03694		http://www.yr.no/stad/Noreg/Østfold/Spydeberg/Tomter/varsel.xml	http://www.yr.no/sted/Norge/Østfold/Spydeberg/Tomter/varsel.xml	http://www.yr.no/place/Norway/Østfold/Spydeberg/Tomter/forecast.xml
124	Askim	11	By	By	City - large town	Askim	Østfold	59.58378	11.16338	130	http://www.yr.no/stad/Noreg/Østfold/Askim/Askim/varsel.xml	http://www.yr.no/sted/Norge/Østfold/Askim/Askim/varsel.xml	http://www.yr.no/place/Norway/Østfold/Askim/Askim/forecast.xml
124	Askim	21	By	By	Town	Askim	Østfold	59.58326	11.16286		http://www.yr.no/stad/Noreg/Østfold/Askim/Askim~2764239/varsel.xml	http://www.yr.no/sted/Norge/Østfold/Askim/Askim~2764239/varsel.xml	http://www.yr.no/place/Norway/Østfold/Askim/Askim~2764239/forecast.xml
124	Askim kirke	55	Kyrkje	Kirke	Church	Askim	Østfold	59.59054	11.15506		http://www.yr.no/stad/Noreg/Østfold/Askim/Askim_kirke/varsel.xml	http://www.yr.no/sted/Norge/Østfold/Askim/Askim_kirke/varsel.xml	http://www.yr.no/place/Norway/Østfold/Askim/Askim_kirke/forecast.xml
124	Gurud	56	Tettbebyggelse	Tettbebyggelse	Settlement	Askim	Østfold	59.58189	11.14208		http://www.yr.no/stad/Noreg/Østfold/Askim/Gurud~2232828/varsel.xml	http://www.yr.no/sted/Norge/Østfold/Askim/Gurud~2232828/varsel.xml	http://www.yr.no/place/Norway/Østfold/Askim/Gurud~2232828/forecast.xml
124	Kykkelsrud	45	Bygd	Bygd	Village area	Askim	Østfold	59.58161	11.10551		http://www.yr.no/stad/Noreg/Østfold/Askim/Kykkelsrud/varsel.xml	http://www.yr.no/sted/Norge/Østfold/Askim/Kykkelsrud/varsel.xml	http://www.yr.no/place/Norway/Østfold/Askim/Kykkelsrud/forecast.xml
124	Langnes	56	Gardsbruk	Gårdsbruk	Farm	Askim	Østfold	59.60557	11.12494		http://www.yr.no/stad/Noreg/Østfold/Askim/Langnes~61890/varsel.xml	http://www.yr.no/sted/Norge/Østfold/Askim/Langnes~61890/varsel.xml	http://www.yr.no/place/Norway/Østfold/Askim/Langnes~61890/forecast.xml
124	Solbergfoss Kraftverk	56	Kraftstasjon	Kraftstasjon	Power station	Askim	Østfold	59.63655	11.15419		http://www.yr.no/stad/Noreg/Østfold/Askim/Solbergfoss_Kraftverk/varsel.xml	http://www.yr.no/sted/Norge/Østfold/Askim/Solbergfoss_Kraftverk/varsel.xml	http://www.yr.no/place/Norway/Østfold/Askim/Solbergfoss_Kraftverk/forecast.xml
124	Vamma bru	56	Bru	Bro	Bridge	Askim	Østfold	59.53824	11.16763		http://www.yr.no/stad/Noreg/Østfold/Askim/Vamma_bru/varsel.xml	http://www.yr.no/sted/Norge/Østfold/Askim/Vamma_bru/varsel.xml	http://www.yr.no/place/Norway/Østfold/Askim/Vamma_bru/forecast.xml
125	Eidsberg	16	Kommune	Kommune	Municipality	Eidsberg	Østfold	59.55148	11.33587		http://www.yr.no/stad/Noreg/Østfold/Eidsberg/Eidsberg/varsel.xml	http://www.yr.no/sted/Norge/Østfold/Eidsberg/Eidsberg/varsel.xml	http://www.yr.no/place/Norway/Østfold/Eidsberg/Eidsberg/forecast.xml
125	Eidsberg kirke	55	Kyrkje	Kirke	Church	Eidsberg	Østfold	59.51918	11.25700		http://www.yr.no/stad/Noreg/Østfold/Eidsberg/Eidsberg_kirke/varsel.xml	http://www.yr.no/sted/Norge/Østfold/Eidsberg/Eidsberg_kirke/varsel.xml	http://www.yr.no/place/Norway/Østfold/Eidsberg/Eidsberg_kirke/forecast.xml
125	Hærland kirke	36	Kyrkje	Kirke	Church	Eidsberg	Østfold	59.55282	11.40425		http://www.yr.no/stad/Noreg/Østfold/Eidsberg/Hærland_kirke/varsel.xml	http://www.yr.no/sted/Norge/Østfold/Eidsberg/Hærland_kirke/varsel.xml	http://www.yr.no/place/Norway/Østfold/Eidsberg/Hærland_kirke/forecast.xml
125	Mysen	11	By	By	City - large town	Eidsberg	Østfold	59.55354	11.32578	106	http://www.yr.no/stad/Noreg/Østfold/Eidsberg/Mysen/varsel.xml	http://www.yr.no/sted/Norge/Østfold/Eidsberg/Mysen/varsel.xml	http://www.yr.no/place/Norway/Østfold/Eidsberg/Mysen/forecast.xml
125	Mysen kirke	55	Kyrkje	Kirke	Church	Eidsberg	Østfold	59.55371	11.33005		http://www.yr.no/stad/Noreg/Østfold/Eidsberg/Mysen_kirke/varsel.xml	http://www.yr.no/sted/Norge/Østfold/Eidsberg/Mysen_kirke/varsel.xml	http://www.yr.no/place/Norway/Østfold/Eidsberg/Mysen_kirke/forecast.xml
125	Slitu	45	Bygd	Bygd	Village area	Eidsberg	Østfold	59.58541	11.26152		http://www.yr.no/stad/Noreg/Østfold/Eidsberg/Slitu/varsel.xml	http://www.yr.no/sted/Norge/Østfold/Eidsberg/Slitu/varsel.xml	http://www.yr.no/place/Norway/Østfold/Eidsberg/Slitu/forecast.xml
125	Trømborg kirke	55	Kyrkje	Kirke	Church	Eidsberg	Østfold	59.50596	11.35850		http://www.yr.no/stad/Noreg/Østfold/Eidsberg/Trømborg_kirke/varsel.xml	http://www.yr.no/sted/Norge/Østfold/Eidsberg/Trømborg_kirke/varsel.xml	http://www.yr.no/place/Norway/Østfold/Eidsberg/Trømborg_kirke/forecast.xml
127	Berga	41	Grend	Grend	Village	Skiptvet	Østfold	59.42009	11.13499		http://www.yr.no/stad/Noreg/Østfold/Skiptvet/Berga/varsel.xml	http://www.yr.no/sted/Norge/Østfold/Skiptvet/Berga/varsel.xml	http://www.yr.no/place/Norway/Østfold/Skiptvet/Berga/forecast.xml
127	Glenne	56	Gardsbruk	Gårdsbruk	Farm	Skiptvet	Østfold	59.40636	11.17675		http://www.yr.no/stad/Noreg/Østfold/Skiptvet/Glenne~48103/varsel.xml	http://www.yr.no/sted/Norge/Østfold/Skiptvet/Glenne~48103/varsel.xml	http://www.yr.no/place/Norway/Østfold/Skiptvet/Glenne~48103/forecast.xml
127	Laum	56	Gardsbruk	Gårdsbruk	Farm	Skiptvet	Østfold	59.49605	11.19968		http://www.yr.no/stad/Noreg/Østfold/Skiptvet/Laum/varsel.xml	http://www.yr.no/sted/Norge/Østfold/Skiptvet/Laum/varsel.xml	http://www.yr.no/place/Norway/Østfold/Skiptvet/Laum/forecast.xml
127	Meieribyen	21	Tettstad	Tettsted	Small town	Skiptvet	Østfold	59.47453	11.16083		http://www.yr.no/stad/Noreg/Østfold/Skiptvet/Meieribyen/varsel.xml	http://www.yr.no/sted/Norge/Østfold/Skiptvet/Meieribyen/varsel.xml	http://www.yr.no/place/Norway/Østfold/Skiptvet/Meieribyen/forecast.xml
127	Onstad	56	Gardsbruk	Gårdsbruk	Farm	Skiptvet	Østfold	59.51518	11.18585		http://www.yr.no/stad/Noreg/Østfold/Skiptvet/Onstad/varsel.xml	http://www.yr.no/sted/Norge/Østfold/Skiptvet/Onstad/varsel.xml	http://www.yr.no/place/Norway/Østfold/Skiptvet/Onstad/forecast.xml
127	Skiptvet	26	Tettstad	Tettsted	Small town	Skiptvet	Østfold	59.46917	11.16221		http://www.yr.no/stad/Noreg/Østfold/Skiptvet/Skiptvet~507673/varsel.xml	http://www.yr.no/sted/Norge/Østfold/Skiptvet/Skiptvet~507673/varsel.xml	http://www.yr.no/place/Norway/Østfold/Skiptvet/Skiptvet~507673/forecast.xml
127	Skiptvet kirke	55	Kyrkje	Kirke	Church	Skiptvet	Østfold	59.46770	11.17448		http://www.yr.no/stad/Noreg/Østfold/Skiptvet/Skiptvet_kirke/varsel.xml	http://www.yr.no/sted/Norge/Østfold/Skiptvet/Skiptvet_kirke/varsel.xml	http://www.yr.no/place/Norway/Østfold/Skiptvet/Skiptvet_kirke/forecast.xml
127	Vister	56	Gardsbruk	Gårdsbruk	Farm	Skiptvet	Østfold	59.51838	11.16437		http://www.yr.no/stad/Noreg/Østfold/Skiptvet/Vister/varsel.xml	http://www.yr.no/sted/Norge/Østfold/Skiptvet/Vister/varsel.xml	http://www.yr.no/place/Norway/Østfold/Skiptvet/Vister/forecast.xml
127	Åmot	41	Grend	Grend	Village	Skiptvet	Østfold	59.45213	11.15724		http://www.yr.no/stad/Noreg/Østfold/Skiptvet/Åmot/varsel.xml	http://www.yr.no/sted/Norge/Østfold/Skiptvet/Åmot/varsel.xml	http://www.yr.no/place/Norway/Østfold/Skiptvet/Åmot/forecast.xml
128	Degernes	26	Tettstad	Tettsted	Small town	Rakkestad	Østfold	59.35332	11.42258		http://www.yr.no/stad/Noreg/Østfold/Rakkestad/Degernes/varsel.xml	http://www.yr.no/sted/Norge/Østfold/Rakkestad/Degernes/varsel.xml	http://www.yr.no/place/Norway/Østfold/Rakkestad/Degernes/forecast.xml
128	Degernes kirke	36	Kyrkje	Kirke	Church	Rakkestad	Østfold	59.35478	11.42433		http://www.yr.no/stad/Noreg/Østfold/Rakkestad/Degernes_kirke/varsel.xml	http://www.yr.no/sted/Norge/Østfold/Rakkestad/Degernes_kirke/varsel.xml	http://www.yr.no/place/Norway/Østfold/Rakkestad/Degernes_kirke/forecast.xml
128	Gautestad	56	Stasjon	Stasjon	Railway station	Rakkestad	Østfold	59.38003	11.29852		http://www.yr.no/stad/Noreg/Østfold/Rakkestad/Gautestad/varsel.xml	http://www.yr.no/sted/Norge/Østfold/Rakkestad/Gautestad/varsel.xml	http://www.yr.no/place/Norway/Østfold/Rakkestad/Gautestad/forecast.xml
128	Kirkeng	56	Del av tettstad	Del av tettsted	Part of a town	Rakkestad	Østfold	59.36026	11.41995		http://www.yr.no/stad/Noreg/Østfold/Rakkestad/Kirkeng~2231362/varsel.xml	http://www.yr.no/sted/Norge/Østfold/Rakkestad/Kirkeng~2231362/varsel.xml	http://www.yr.no/place/Norway/Østfold/Rakkestad/Kirkeng~2231362/forecast.xml
128	Kirkeng skole	56	Del av tettstad	Del av tettsted	Part of a town	Rakkestad	Østfold	59.35717	11.42036		http://www.yr.no/stad/Noreg/Østfold/Rakkestad/Kirkeng_skole/varsel.xml	http://www.yr.no/sted/Norge/Østfold/Rakkestad/Kirkeng_skole/varsel.xml	http://www.yr.no/place/Norway/Østfold/Rakkestad/Kirkeng_skole/forecast.xml
128	Os kirke	55	Kyrkje	Kirke	Church	Rakkestad	Østfold	59.45033	11.23828		http://www.yr.no/stad/Noreg/Østfold/Rakkestad/Os_kirke/varsel.xml	http://www.yr.no/sted/Norge/Østfold/Rakkestad/Os_kirke/varsel.xml	http://www.yr.no/place/Norway/Østfold/Rakkestad/Os_kirke/forecast.xml
128	Rakkestad	16	Kommune	Kommune	Municipality	Rakkestad	Østfold	59.42822	11.34350		http://www.yr.no/stad/Noreg/Østfold/Rakkestad/Rakkestad/varsel.xml	http://www.yr.no/sted/Norge/Østfold/Rakkestad/Rakkestad/varsel.xml	http://www.yr.no/place/Norway/Østfold/Rakkestad/Rakkestad/forecast.xml
128	Rakkestad	26	Tettstad	Tettsted	Small town	Rakkestad	Østfold	59.42799	11.33991		http://www.yr.no/stad/Noreg/Østfold/Rakkestad/Rakkestad~48055/varsel.xml	http://www.yr.no/sted/Norge/Østfold/Rakkestad/Rakkestad~48055/varsel.xml	http://www.yr.no/place/Norway/Østfold/Rakkestad/Rakkestad~48055/forecast.xml
128	Rakkestad flyplass, Åstorp	46	Flyplass	Flyplass	Airport	Rakkestad	Østfold	59.39784	11.34655		http://www.yr.no/stad/Noreg/Østfold/Rakkestad/Rakkestad_flyplass,_Åstorp/varsel.xml	http://www.yr.no/sted/Norge/Østfold/Rakkestad/Rakkestad_flyplass,_Åstorp/varsel.xml	http://www.yr.no/place/Norway/Østfold/Rakkestad/Rakkestad_flyplass,_Åstorp/forecast.xml
128	Rakkestad kirke	55	Kyrkje	Kirke	Church	Rakkestad	Østfold	59.41085	11.36932		http://www.yr.no/stad/Noreg/Østfold/Rakkestad/Rakkestad_kirke/varsel.xml	http://www.yr.no/sted/Norge/Østfold/Rakkestad/Rakkestad_kirke/varsel.xml	http://www.yr.no/place/Norway/Østfold/Rakkestad/Rakkestad_kirke/forecast.xml
128	Skantebygda	45	Bygd	Bygd	Village area	Rakkestad	Østfold	59.39616	11.24104		http://www.yr.no/stad/Noreg/Østfold/Rakkestad/Skantebygda/varsel.xml	http://www.yr.no/sted/Norge/Østfold/Rakkestad/Skantebygda/varsel.xml	http://www.yr.no/place/Norway/Østfold/Rakkestad/Skantebygda/forecast.xml
128	Skjekle	56	Gardsbruk	Gårdsbruk	Farm	Rakkestad	Østfold	59.27388	11.42789		http://www.yr.no/stad/Noreg/Østfold/Rakkestad/Skjekle/varsel.xml	http://www.yr.no/sted/Norge/Østfold/Rakkestad/Skjekle/varsel.xml	http://www.yr.no/place/Norway/Østfold/Rakkestad/Skjekle/forecast.xml
128	Vaterland	26	Tettstad	Tettsted	Small town	Rakkestad	Østfold	59.42012	11.34633		http://www.yr.no/stad/Noreg/Østfold/Rakkestad/Vaterland/varsel.xml	http://www.yr.no/sted/Norge/Østfold/Rakkestad/Vaterland/varsel.xml	http://www.yr.no/place/Norway/Østfold/Rakkestad/Vaterland/forecast.xml
128	Ytterskogen	41	Grend	Grend	Village	Rakkestad	Østfold	59.36943	11.30428		http://www.yr.no/stad/Noreg/Østfold/Rakkestad/Ytterskogen/varsel.xml	http://www.yr.no/sted/Norge/Østfold/Rakkestad/Ytterskogen/varsel.xml	http://www.yr.no/place/Norway/Østfold/Rakkestad/Ytterskogen/forecast.xml
135	Fuglevik	41	Grend	Grend	Village	Råde	Østfold	59.32126	10.75930		http://www.yr.no/stad/Noreg/Østfold/Råde/Fuglevik/varsel.xml	http://www.yr.no/sted/Norge/Østfold/Råde/Fuglevik/varsel.xml	http://www.yr.no/place/Norway/Østfold/Råde/Fuglevik/forecast.xml
135	Karlshus	21	Tettstad	Tettsted	Small town	Råde	Østfold	59.35173	10.87236		http://www.yr.no/stad/Noreg/Østfold/Råde/Karlshus/varsel.xml	http://www.yr.no/sted/Norge/Østfold/Råde/Karlshus/varsel.xml	http://www.yr.no/place/Norway/Østfold/Råde/Karlshus/forecast.xml
135	Moss lufthavn Rygge	46	Flyplass	Flyplass	Airport	Råde	Østfold	59.37393	10.80381		http://www.yr.no/stad/Noreg/Østfold/Råde/Moss_lufthavn_Rygge/varsel.xml	http://www.yr.no/sted/Norge/Østfold/Råde/Moss_lufthavn_Rygge/varsel.xml	http://www.yr.no/place/Norway/Østfold/Råde/Moss_lufthavn_Rygge/forecast.xml
135	Moss lufthavn Rygge	46	Flyplass	Flyplass	Airport	Råde	Østfold	59.37393	10.80381		http://www.yr.no/stad/Noreg/Østfold/Råde/Moss_lufthavn_Rygge/varsel.xml	http://www.yr.no/sted/Norge/Østfold/Råde/Moss_lufthavn_Rygge/varsel.xml	http://www.yr.no/place/Norway/Østfold/Råde/Moss_lufthavn_Rygge/forecast.xml
135	Råde	26	Tettstad	Tettsted	Small town	Råde	Østfold	59.35202	10.86429		http://www.yr.no/stad/Noreg/Østfold/Råde/Råde~47344/varsel.xml	http://www.yr.no/sted/Norge/Østfold/Råde/Råde~47344/varsel.xml	http://www.yr.no/place/Norway/Østfold/Råde/Råde~47344/forecast.xml
135	Råde kirke	55	Kyrkje	Kirke	Church	Råde	Østfold	59.34624	10.89359		http://www.yr.no/stad/Noreg/Østfold/Råde/Råde_kirke/varsel.xml	http://www.yr.no/sted/Norge/Østfold/Råde/Råde_kirke/varsel.xml	http://www.yr.no/place/Norway/Østfold/Råde/Råde_kirke/forecast.xml
135	Saltnes	45	Tettbebyggelse	Tettbebyggelse	Settlement	Råde	Østfold	59.28977	10.75625		http://www.yr.no/stad/Noreg/Østfold/Råde/Saltnes/varsel.xml	http://www.yr.no/sted/Norge/Østfold/Råde/Saltnes/varsel.xml	http://www.yr.no/place/Norway/Østfold/Råde/Saltnes/forecast.xml
135	Spetalen	26	Tettstad	Tettsted	Small town	Råde	Østfold	59.29856	10.76693		http://www.yr.no/stad/Noreg/Østfold/Råde/Spetalen/varsel.xml	http://www.yr.no/sted/Norge/Østfold/Råde/Spetalen/varsel.xml	http://www.yr.no/place/Norway/Østfold/Råde/Spetalen/forecast.xml
135	Store Sletter	56	Øy i sjø	Øy i sjø	Island in sea	Råde	Østfold	59.30172	10.66733		http://www.yr.no/stad/Noreg/Østfold/Råde/Store_Sletter/varsel.xml	http://www.yr.no/sted/Norge/Østfold/Råde/Store_Sletter/varsel.xml	http://www.yr.no/place/Norway/Østfold/Råde/Store_Sletter/forecast.xml
135	Tomb	56	Tettbebyggelse	Tettbebyggelse	Settlement	Råde	Østfold	59.31943	10.80525		http://www.yr.no/stad/Noreg/Østfold/Råde/Tomb/varsel.xml	http://www.yr.no/sted/Norge/Østfold/Råde/Tomb/varsel.xml	http://www.yr.no/place/Norway/Østfold/Råde/Tomb/forecast.xml
135	Tomb kirke	55	Kyrkje	Kirke	Church	Råde	Østfold	59.32195	10.80997		http://www.yr.no/stad/Noreg/Østfold/Råde/Tomb_kirke/varsel.xml	http://www.yr.no/sted/Norge/Østfold/Råde/Tomb_kirke/varsel.xml	http://www.yr.no/place/Norway/Østfold/Råde/Tomb_kirke/forecast.xml
136	Dilling	56	Stasjon	Stasjon	Railway station	Rygge	Østfold	59.39816	10.69394	27	http://www.yr.no/stad/Noreg/Østfold/Rygge/Dilling~46640/varsel.xml	http://www.yr.no/sted/Norge/Østfold/Rygge/Dilling~46640/varsel.xml	http://www.yr.no/place/Norway/Østfold/Rygge/Dilling~46640/forecast.xml
136	Dilling	56	Tettbebyggelse	Tettbebyggelse	Settlement	Rygge	Østfold	59.40689	10.69650		http://www.yr.no/stad/Noreg/Østfold/Rygge/Dilling~2723441/varsel.xml	http://www.yr.no/sted/Norge/Østfold/Rygge/Dilling~2723441/varsel.xml	http://www.yr.no/place/Norway/Østfold/Rygge/Dilling~2723441/forecast.xml
136	Ekholt kirke	55	Kyrkje	Kirke	Church	Rygge	Østfold	59.40929	10.68621		http://www.yr.no/stad/Noreg/Østfold/Rygge/Ekholt_kirke/varsel.xml	http://www.yr.no/sted/Norge/Østfold/Rygge/Ekholt_kirke/varsel.xml	http://www.yr.no/place/Norway/Østfold/Rygge/Ekholt_kirke/forecast.xml
136	Fuglevik mellem	41	Grend	Grend	Village	Rygge	Østfold	59.38611	10.65665		http://www.yr.no/stad/Noreg/Østfold/Rygge/Fuglevik_mellem/varsel.xml	http://www.yr.no/sted/Norge/Østfold/Rygge/Fuglevik_mellem/varsel.xml	http://www.yr.no/place/Norway/Østfold/Rygge/Fuglevik_mellem/forecast.xml
136	Fuglevik nordre	41	Grend	Grend	Village	Rygge	Østfold	59.39312	10.65114		http://www.yr.no/stad/Noreg/Østfold/Rygge/Fuglevik_nordre/varsel.xml	http://www.yr.no/sted/Norge/Østfold/Rygge/Fuglevik_nordre/varsel.xml	http://www.yr.no/place/Norway/Østfold/Rygge/Fuglevik_nordre/forecast.xml
136	Fuglevik søndre	41	Grend	Grend	Village	Rygge	Østfold	59.38342	10.65228		http://www.yr.no/stad/Noreg/Østfold/Rygge/Fuglevik_søndre/varsel.xml	http://www.yr.no/sted/Norge/Østfold/Rygge/Fuglevik_søndre/varsel.xml	http://www.yr.no/place/Norway/Østfold/Rygge/Fuglevik_søndre/forecast.xml
136	Garnbakken	41	Grend	Grend	Village	Rygge	Østfold	59.32567	10.68949		http://www.yr.no/stad/Noreg/Østfold/Rygge/Garnbakken/varsel.xml	http://www.yr.no/sted/Norge/Østfold/Rygge/Garnbakken/varsel.xml	http://www.yr.no/place/Norway/Østfold/Rygge/Garnbakken/forecast.xml
136	Halmstad	56	Del av tettstad	Del av tettsted	Part of a town	Rygge	Østfold	59.38171	10.75144		http://www.yr.no/stad/Noreg/Østfold/Rygge/Halmstad~2274959/varsel.xml	http://www.yr.no/sted/Norge/Østfold/Rygge/Halmstad~2274959/varsel.xml	http://www.yr.no/place/Norway/Østfold/Rygge/Halmstad~2274959/forecast.xml
136	Larkollen	26	Tettstad	Tettsted	Small town	Rygge	Østfold	59.33196	10.66687		http://www.yr.no/stad/Noreg/Østfold/Rygge/Larkollen/varsel.xml	http://www.yr.no/sted/Norge/Østfold/Rygge/Larkollen/varsel.xml	http://www.yr.no/place/Norway/Østfold/Rygge/Larkollen/forecast.xml
136	Larkollen kirke	55	Kyrkje	Kirke	Church	Rygge	Østfold	59.33252	10.66692		http://www.yr.no/stad/Noreg/Østfold/Rygge/Larkollen_kirke/varsel.xml	http://www.yr.no/sted/Norge/Østfold/Rygge/Larkollen_kirke/varsel.xml	http://www.yr.no/place/Norway/Østfold/Rygge/Larkollen_kirke/forecast.xml
136	Rygge	16	Kommune	Kommune	Municipality	Rygge	Østfold	59.40629	10.69298		http://www.yr.no/stad/Noreg/Østfold/Rygge/Rygge/varsel.xml	http://www.yr.no/sted/Norge/Østfold/Rygge/Rygge/varsel.xml	http://www.yr.no/place/Norway/Østfold/Rygge/Rygge/forecast.xml
136	Rygge	16	Kommune	Kommune	Municipality	Rygge	Østfold	59.40629	10.69298		http://www.yr.no/stad/Noreg/Østfold/Rygge/Rygge/varsel.xml	http://www.yr.no/sted/Norge/Østfold/Rygge/Rygge/varsel.xml	http://www.yr.no/place/Norway/Østfold/Rygge/Rygge/forecast.xml
136	Rygge	16	Kommune	Kommune	Municipality	Rygge	Østfold	59.40629	10.69298		http://www.yr.no/stad/Noreg/Østfold/Rygge/Rygge/varsel.xml	http://www.yr.no/sted/Norge/Østfold/Rygge/Rygge/varsel.xml	http://www.yr.no/place/Norway/Østfold/Rygge/Rygge/forecast.xml
136	Rygge	26	Tettstad	Tettsted	Small town	Rygge	Østfold	59.38173	10.75142		http://www.yr.no/stad/Noreg/Østfold/Rygge/Rygge~2274955/varsel.xml	http://www.yr.no/sted/Norge/Østfold/Rygge/Rygge~2274955/varsel.xml	http://www.yr.no/place/Norway/Østfold/Rygge/Rygge~2274955/forecast.xml
136	Rygge kirke	55	Kyrkje	Kirke	Church	Rygge	Østfold	59.37963	10.72248		http://www.yr.no/stad/Noreg/Østfold/Rygge/Rygge_kirke/varsel.xml	http://www.yr.no/sted/Norge/Østfold/Rygge/Rygge_kirke/varsel.xml	http://www.yr.no/place/Norway/Østfold/Rygge/Rygge_kirke/forecast.xml
136	Rådeskogen	41	Grend	Grend	Village	Rygge	Østfold	59.39226	10.76673		http://www.yr.no/stad/Noreg/Østfold/Rygge/Rådeskogen/varsel.xml	http://www.yr.no/sted/Norge/Østfold/Rygge/Rådeskogen/varsel.xml	http://www.yr.no/place/Norway/Østfold/Rygge/Rådeskogen/forecast.xml
137	Fosseberget	56	Tettbebyggelse	Tettbebyggelse	Settlement	Våler	Østfold	59.43017	11.00186		http://www.yr.no/stad/Noreg/Østfold/Våler/Fosseberget~2718689/varsel.xml	http://www.yr.no/sted/Norge/Østfold/Våler/Fosseberget~2718689/varsel.xml	http://www.yr.no/place/Norway/Østfold/Våler/Fosseberget~2718689/forecast.xml
137	Kirkebygda	21	Tettstad	Tettsted	Small town	Våler	Østfold	59.48920	10.87365		http://www.yr.no/stad/Noreg/Østfold/Våler/Kirkebygda/varsel.xml	http://www.yr.no/sted/Norge/Østfold/Våler/Kirkebygda/varsel.xml	http://www.yr.no/place/Norway/Østfold/Våler/Kirkebygda/forecast.xml
137	Kjærsund	56	Gardsbruk	Gårdsbruk	Farm	Våler	Østfold	59.41847	10.78868		http://www.yr.no/stad/Noreg/Østfold/Våler/Kjærsund~47190/varsel.xml	http://www.yr.no/sted/Norge/Østfold/Våler/Kjærsund~47190/varsel.xml	http://www.yr.no/place/Norway/Østfold/Våler/Kjærsund~47190/forecast.xml
137	Rød	41	Grend	Grend	Village	Våler	Østfold	59.46260	10.77453		http://www.yr.no/stad/Noreg/Østfold/Våler/Rød/varsel.xml	http://www.yr.no/sted/Norge/Østfold/Våler/Rød/varsel.xml	http://www.yr.no/place/Norway/Østfold/Våler/Rød/forecast.xml
137	Sperrebotn	56	Vik	Vik	Inlet	Våler	Østfold	59.45204	10.78625		http://www.yr.no/stad/Noreg/Østfold/Våler/Sperrebotn/varsel.xml	http://www.yr.no/sted/Norge/Østfold/Våler/Sperrebotn/varsel.xml	http://www.yr.no/place/Norway/Østfold/Våler/Sperrebotn/forecast.xml
137	Svinndal	26	Tettstad	Tettsted	Small town	Våler	Østfold	59.42360	11.01659		http://www.yr.no/stad/Noreg/Østfold/Våler/Svinndal/varsel.xml	http://www.yr.no/sted/Norge/Østfold/Våler/Svinndal/varsel.xml	http://www.yr.no/place/Norway/Østfold/Våler/Svinndal/forecast.xml
137	Svinndal kirke	36	Kyrkje	Kirke	Church	Våler	Østfold	59.42407	11.01625		http://www.yr.no/stad/Noreg/Østfold/Våler/Svinndal_kirke/varsel.xml	http://www.yr.no/sted/Norge/Østfold/Våler/Svinndal_kirke/varsel.xml	http://www.yr.no/place/Norway/Østfold/Våler/Svinndal_kirke/forecast.xml
137	Teksnes	26	Tettstad	Tettsted	Small town	Våler	Østfold	59.45846	10.79474		http://www.yr.no/stad/Noreg/Østfold/Våler/Teksnes/varsel.xml	http://www.yr.no/sted/Norge/Østfold/Våler/Teksnes/varsel.xml	http://www.yr.no/place/Norway/Østfold/Våler/Teksnes/forecast.xml
137	Våler kirke	55	Kyrkje	Kirke	Church	Våler	Østfold	59.48860	10.86814		http://www.yr.no/stad/Noreg/Østfold/Våler/Våler_kirke/varsel.xml	http://www.yr.no/sted/Norge/Østfold/Våler/Våler_kirke/varsel.xml	http://www.yr.no/place/Norway/Østfold/Våler/Våler_kirke/forecast.xml
137	Østre Veidal	56	Gardsbruk	Gårdsbruk	Farm	Våler	Østfold	59.51235	10.91054		http://www.yr.no/stad/Noreg/Østfold/Våler/Østre_Veidal/varsel.xml	http://www.yr.no/sted/Norge/Østfold/Våler/Østre_Veidal/varsel.xml	http://www.yr.no/place/Norway/Østfold/Våler/Østre_Veidal/forecast.xml
138	Elvestad	26	Bygd	Bygd	Village area	Hobøl	Østfold	59.62287	10.94983		http://www.yr.no/stad/Noreg/Østfold/Hobøl/Elvestad/varsel.xml	http://www.yr.no/sted/Norge/Østfold/Hobøl/Elvestad/varsel.xml	http://www.yr.no/place/Norway/Østfold/Hobøl/Elvestad/forecast.xml
138	Hobøl kirke	55	Kyrkje	Kirke	Church	Hobøl	Østfold	59.60063	10.92444		http://www.yr.no/stad/Noreg/Østfold/Hobøl/Hobøl_kirke/varsel.xml	http://www.yr.no/sted/Norge/Østfold/Hobøl/Hobøl_kirke/varsel.xml	http://www.yr.no/place/Norway/Østfold/Hobøl/Hobøl_kirke/forecast.xml
138	Knappstad	56	Tettbebyggelse	Tettbebyggelse	Settlement	Hobøl	Østfold	59.62424	11.03273		http://www.yr.no/stad/Noreg/Østfold/Hobøl/Knappstad/varsel.xml	http://www.yr.no/sted/Norge/Østfold/Hobøl/Knappstad/varsel.xml	http://www.yr.no/place/Norway/Østfold/Hobøl/Knappstad/forecast.xml
138	Lippestad nordre	61	Gardsbruk	Gårdsbruk	Farm	Hobøl	Østfold	59.62895	11.01494		http://www.yr.no/stad/Noreg/Østfold/Hobøl/Lippestad_nordre/varsel.xml	http://www.yr.no/sted/Norge/Østfold/Hobøl/Lippestad_nordre/varsel.xml	http://www.yr.no/place/Norway/Østfold/Hobøl/Lippestad_nordre/forecast.xml
138	Ringvoll	45	Bygd	Bygd	Village area	Hobøl	Østfold	59.55740	10.84119		http://www.yr.no/stad/Noreg/Østfold/Hobøl/Ringvoll/varsel.xml	http://www.yr.no/sted/Norge/Østfold/Hobøl/Ringvoll/varsel.xml	http://www.yr.no/place/Norway/Østfold/Hobøl/Ringvoll/forecast.xml
138	Tomter	26	Tettstad	Tettsted	Small town	Hobøl	Østfold	59.66039	11.00003		http://www.yr.no/stad/Noreg/Østfold/Hobøl/Tomter/varsel.xml	http://www.yr.no/sted/Norge/Østfold/Hobøl/Tomter/varsel.xml	http://www.yr.no/place/Norway/Østfold/Hobøl/Tomter/forecast.xml
138	Tomter kirke	55	Kyrkje	Kirke	Church	Hobøl	Østfold	59.65138	11.01061		http://www.yr.no/stad/Noreg/Østfold/Hobøl/Tomter_kirke/varsel.xml	http://www.yr.no/sted/Norge/Østfold/Hobøl/Tomter_kirke/varsel.xml	http://www.yr.no/place/Norway/Østfold/Hobøl/Tomter_kirke/forecast.xml
138	Vestre Knapstad	56	Gardsbruk	Gårdsbruk	Farm	Hobøl	Østfold	59.62222	11.02926		http://www.yr.no/stad/Noreg/Østfold/Hobøl/Vestre_Knapstad/varsel.xml	http://www.yr.no/sted/Norge/Østfold/Hobøl/Vestre_Knapstad/varsel.xml	http://www.yr.no/place/Norway/Østfold/Hobøl/Vestre_Knapstad/forecast.xml
211	Bergli	41	Grend	Grend	Village	Vestby	Akershus	59.55974	10.77623		http://www.yr.no/stad/Noreg/Akershus/Vestby/Bergli/varsel.xml	http://www.yr.no/sted/Norge/Akershus/Vestby/Bergli/varsel.xml	http://www.yr.no/place/Norway/Akershus/Vestby/Bergli/forecast.xml
211	Brevikmyra	41	Grend	Grend	Village	Vestby	Akershus	59.50970	10.69503		http://www.yr.no/stad/Noreg/Akershus/Vestby/Brevikmyra/varsel.xml	http://www.yr.no/sted/Norge/Akershus/Vestby/Brevikmyra/varsel.xml	http://www.yr.no/place/Norway/Akershus/Vestby/Brevikmyra/forecast.xml
211	Fjell	41	Grend	Grend	Village	Vestby	Akershus	59.56161	10.77646		http://www.yr.no/stad/Noreg/Akershus/Vestby/Fjell/varsel.xml	http://www.yr.no/sted/Norge/Akershus/Vestby/Fjell/varsel.xml	http://www.yr.no/place/Norway/Akershus/Vestby/Fjell/forecast.xml
211	Furulund	41	Grend	Grend	Village	Vestby	Akershus	59.59201	10.75373		http://www.yr.no/stad/Noreg/Akershus/Vestby/Furulund/varsel.xml	http://www.yr.no/sted/Norge/Akershus/Vestby/Furulund/varsel.xml	http://www.yr.no/place/Norway/Akershus/Vestby/Furulund/forecast.xml
211	Garder	55	Kyrkje	Kirke	Church	Vestby	Akershus	59.58112	10.80936		http://www.yr.no/stad/Noreg/Akershus/Vestby/Garder/varsel.xml	http://www.yr.no/sted/Norge/Akershus/Vestby/Garder/varsel.xml	http://www.yr.no/place/Norway/Akershus/Vestby/Garder/forecast.xml
211	Glenne	41	Grend	Grend	Village	Vestby	Akershus	59.58337	10.78636		http://www.yr.no/stad/Noreg/Akershus/Vestby/Glenne/varsel.xml	http://www.yr.no/sted/Norge/Akershus/Vestby/Glenne/varsel.xml	http://www.yr.no/place/Norway/Akershus/Vestby/Glenne/forecast.xml
211	Holen	41	Grend	Grend	Village	Vestby	Akershus	59.58569	10.65818		http://www.yr.no/stad/Noreg/Akershus/Vestby/Holen/varsel.xml	http://www.yr.no/sted/Norge/Akershus/Vestby/Holen/varsel.xml	http://www.yr.no/place/Norway/Akershus/Vestby/Holen/forecast.xml
211	Hvitsten	26	Tettstad	Tettsted	Small town	Vestby	Akershus	59.59864	10.65526		http://www.yr.no/stad/Noreg/Akershus/Vestby/Hvitsten/varsel.xml	http://www.yr.no/sted/Norge/Akershus/Vestby/Hvitsten/varsel.xml	http://www.yr.no/place/Norway/Akershus/Vestby/Hvitsten/forecast.xml
211	Hvitsten kirke	55	Kyrkje	Kirke	Church	Vestby	Akershus	59.59932	10.65874		http://www.yr.no/stad/Noreg/Akershus/Vestby/Hvitsten_kirke/varsel.xml	http://www.yr.no/sted/Norge/Akershus/Vestby/Hvitsten_kirke/varsel.xml	http://www.yr.no/place/Norway/Akershus/Vestby/Hvitsten_kirke/forecast.xml
211	Høgda	41	Grend	Grend	Village	Vestby	Akershus	59.61794	10.74266		http://www.yr.no/stad/Noreg/Akershus/Vestby/Høgda/varsel.xml	http://www.yr.no/sted/Norge/Akershus/Vestby/Høgda/varsel.xml	http://www.yr.no/place/Norway/Akershus/Vestby/Høgda/forecast.xml
211	Hølen	26	Tettstad	Tettsted	Small town	Vestby	Akershus	59.53983	10.73919		http://www.yr.no/stad/Noreg/Akershus/Vestby/Hølen/varsel.xml	http://www.yr.no/sted/Norge/Akershus/Vestby/Hølen/varsel.xml	http://www.yr.no/place/Norway/Akershus/Vestby/Hølen/forecast.xml
211	Kjenn	41	Grend	Grend	Village	Vestby	Akershus	59.56444	10.73472		http://www.yr.no/stad/Noreg/Akershus/Vestby/Kjenn/varsel.xml	http://www.yr.no/sted/Norge/Akershus/Vestby/Kjenn/varsel.xml	http://www.yr.no/place/Norway/Akershus/Vestby/Kjenn/forecast.xml
211	Kjøvangen	41	Grend	Grend	Village	Vestby	Akershus	59.53780	10.66612		http://www.yr.no/stad/Noreg/Akershus/Vestby/Kjøvangen/varsel.xml	http://www.yr.no/sted/Norge/Akershus/Vestby/Kjøvangen/varsel.xml	http://www.yr.no/place/Norway/Akershus/Vestby/Kjøvangen/forecast.xml
211	Krusebyen	41	Grend	Grend	Village	Vestby	Akershus	59.59718	10.72330		http://www.yr.no/stad/Noreg/Akershus/Vestby/Krusebyen/varsel.xml	http://www.yr.no/sted/Norge/Akershus/Vestby/Krusebyen/varsel.xml	http://www.yr.no/place/Norway/Akershus/Vestby/Krusebyen/forecast.xml
211	Lundeåsen	41	Grend	Grend	Village	Vestby	Akershus	59.49544	10.69197		http://www.yr.no/stad/Noreg/Akershus/Vestby/Lundeåsen/varsel.xml	http://www.yr.no/sted/Norge/Akershus/Vestby/Lundeåsen/varsel.xml	http://www.yr.no/place/Norway/Akershus/Vestby/Lundeåsen/forecast.xml
211	Okseryggen	41	Grend	Grend	Village	Vestby	Akershus	59.58596	10.65527		http://www.yr.no/stad/Noreg/Akershus/Vestby/Okseryggen/varsel.xml	http://www.yr.no/sted/Norge/Akershus/Vestby/Okseryggen/varsel.xml	http://www.yr.no/place/Norway/Akershus/Vestby/Okseryggen/forecast.xml
211	Pepperstad skog	26	Tettstad	Tettsted	Small town	Vestby	Akershus	59.59390	10.70453		http://www.yr.no/stad/Noreg/Akershus/Vestby/Pepperstad_skog/varsel.xml	http://www.yr.no/sted/Norge/Akershus/Vestby/Pepperstad_skog/varsel.xml	http://www.yr.no/place/Norway/Akershus/Vestby/Pepperstad_skog/forecast.xml
211	Skoglundåsen	41	Grend	Grend	Village	Vestby	Akershus	59.52162	10.70797		http://www.yr.no/stad/Noreg/Akershus/Vestby/Skoglundåsen/varsel.xml	http://www.yr.no/sted/Norge/Akershus/Vestby/Skoglundåsen/varsel.xml	http://www.yr.no/place/Norway/Akershus/Vestby/Skoglundåsen/forecast.xml
211	Smørbekk	41	Grend	Grend	Village	Vestby	Akershus	59.50271	10.71301		http://www.yr.no/stad/Noreg/Akershus/Vestby/Smørbekk/varsel.xml	http://www.yr.no/sted/Norge/Akershus/Vestby/Smørbekk/varsel.xml	http://www.yr.no/place/Norway/Akershus/Vestby/Smørbekk/forecast.xml
211	Sollia	41	Grend	Grend	Village	Vestby	Akershus	59.50457	10.68415		http://www.yr.no/stad/Noreg/Akershus/Vestby/Sollia/varsel.xml	http://www.yr.no/sted/Norge/Akershus/Vestby/Sollia/varsel.xml	http://www.yr.no/place/Norway/Akershus/Vestby/Sollia/forecast.xml
211	Son	26	Tettstad	Tettsted	Small town	Vestby	Akershus	59.52370	10.68618		http://www.yr.no/stad/Noreg/Akershus/Vestby/Son/varsel.xml	http://www.yr.no/sted/Norge/Akershus/Vestby/Son/varsel.xml	http://www.yr.no/place/Norway/Akershus/Vestby/Son/forecast.xml
211	Sorgenfri	41	Grend	Grend	Village	Vestby	Akershus	59.59134	10.72665		http://www.yr.no/stad/Noreg/Akershus/Vestby/Sorgenfri/varsel.xml	http://www.yr.no/sted/Norge/Akershus/Vestby/Sorgenfri/varsel.xml	http://www.yr.no/place/Norway/Akershus/Vestby/Sorgenfri/forecast.xml
211	Stenløkka	41	Grend	Grend	Village	Vestby	Akershus	59.52015	10.68433		http://www.yr.no/stad/Noreg/Akershus/Vestby/Stenløkka/varsel.xml	http://www.yr.no/sted/Norge/Akershus/Vestby/Stenløkka/varsel.xml	http://www.yr.no/place/Norway/Akershus/Vestby/Stenløkka/forecast.xml
211	Stjernåsen	41	Grend	Grend	Village	Vestby	Akershus	59.55347	10.65434		http://www.yr.no/stad/Noreg/Akershus/Vestby/Stjernåsen/varsel.xml	http://www.yr.no/sted/Norge/Akershus/Vestby/Stjernåsen/varsel.xml	http://www.yr.no/place/Norway/Akershus/Vestby/Stjernåsen/forecast.xml
211	Store Brevik	56	Tettbebyggelse	Tettbebyggelse	Settlement	Vestby	Akershus	59.50672	10.69343		http://www.yr.no/stad/Noreg/Akershus/Vestby/Store_Brevik/varsel.xml	http://www.yr.no/sted/Norge/Akershus/Vestby/Store_Brevik/varsel.xml	http://www.yr.no/place/Norway/Akershus/Vestby/Store_Brevik/forecast.xml
